{"cities":[{"name":"南投縣","points":[{"lng":121.0442,"city":"南投縣","name":"武界-AP1","nearby":"","lat":23.91328,"desc":"2-仁愛鄉-武界部落-武界-AP1"},{"lng":121.0434,"city":"南投縣","name":"武界-AP2","nearby":"","lat":23.91343,"desc":"2-仁愛鄉-武界部落-武界-AP2"},{"lng":121.04339,"city":"南投縣","name":"武界-AP3","nearby":"","lat":23.9139,"desc":"2-仁愛鄉-武界部落-武界-AP3"},{"lng":121.04413,"city":"南投縣","name":"武界-AP7","nearby":"","lat":23.914,"desc":"2-仁愛鄉-武界部落-武界-AP7"},{"lng":121.04369,"city":"南投縣","name":"武界-AP4","nearby":"","lat":23.91475,"desc":"2-仁愛鄉-武界部落-武界-AP4"},{"lng":121.04387,"city":"南投縣","name":"武界-AP5","nearby":"","lat":23.91559,"desc":"2-仁愛鄉-武界部落-武界-AP5"},{"lng":121.04494,"city":"南投縣","name":"武界-AP6","nearby":"1","lat":23.91578,"desc":"2-仁愛鄉-武界部落-武界-AP6"},{"lng":121.07852,"city":"南投縣","name":"萬豐-AP1","nearby":"1","lat":23.94611,"desc":"5-仁愛鄉-萬豐部落-萬豐-AP1"},{"lng":121.07802,"city":"南投縣","name":"萬豐-AP2","nearby":"","lat":23.94531,"desc":"5-仁愛鄉-萬豐部落-萬豐-AP2"},{"lng":121.07725,"city":"南投縣","name":"萬豐-AP3","nearby":"","lat":23.94631,"desc":"5-仁愛鄉-萬豐部落-萬豐-AP3"},{"lng":121.07641,"city":"南投縣","name":"萬豐-AP4","nearby":"","lat":23.94591,"desc":"5-仁愛鄉-萬豐部落-萬豐-AP4"},{"lng":120.87521,"city":"南投縣","name":"豐丘-AP1","nearby":"1","lat":23.6702,"desc":"5-信義鄉-豐丘部落-豐丘-AP1"},{"lng":120.87497,"city":"南投縣","name":"豐丘-AP2","nearby":"","lat":23.67116,"desc":"5-信義鄉-豐丘部落-豐丘-AP2"},{"lng":120.87444,"city":"南投縣","name":"豐丘-AP3","nearby":"","lat":23.67256,"desc":"5-信義鄉-豐丘部落-豐丘-AP3"},{"lng":120.8742,"city":"南投縣","name":"豐丘-AP4","nearby":"","lat":23.67336,"desc":"5-信義鄉-豐丘部落-豐丘-AP4"},{"lng":120.95357,"city":"南投縣","name":"清流-AP1","nearby":"","lat":24.06963,"desc":"2-仁愛鄉-清流部落-清流-AP1"},{"lng":120.95321,"city":"南投縣","name":"清流-AP2","nearby":"","lat":24.06829,"desc":"2-仁愛鄉-清流部落-清流-AP2"},{"lng":120.95326,"city":"南投縣","name":"清流-AP3","nearby":"","lat":24.06713,"desc":"2-仁愛鄉-清流部落-清流-AP3"},{"lng":120.95319,"city":"南投縣","name":"清流-AP4","nearby":"1","lat":24.06512,"desc":"2-仁愛鄉-清流部落-清流-AP4"},{"lng":120.95554,"city":"南投縣","name":"清流-AP5","nearby":"","lat":24.06862,"desc":"2-仁愛鄉-清流部落-清流-AP5"},{"lng":120.88555,"city":"南投縣","name":"望鄉-AP1","nearby":"","lat":23.59886,"desc":"2-信義鄉-望鄉部落-望鄉-AP1"},{"lng":120.88423,"city":"南投縣","name":"望鄉-AP2","nearby":"","lat":23.59875,"desc":"2-信義鄉-望鄉部落-望鄉-AP2"},{"lng":120.88526,"city":"南投縣","name":"望鄉-AP3","nearby":"","lat":23.59999,"desc":"2-信義鄉-望鄉部落-望鄉-AP3"},{"lng":120.88458,"city":"南投縣","name":"望鄉-AP4","nearby":"","lat":23.59939,"desc":"2-信義鄉-望鄉部落-望鄉-AP4"},{"lng":120.88687,"city":"南投縣","name":"望鄉-AP5","nearby":"","lat":23.6007,"desc":"2-信義鄉-望鄉部落-望鄉-AP5"},{"lng":120.8847,"city":"南投縣","name":"望鄉-AP6","nearby":"","lat":23.6014,"desc":"2-信義鄉-望鄉部落-望鄉-AP6"},{"lng":120.89596,"city":"南投縣","name":"人倫-AP2","nearby":"","lat":23.77916,"desc":"2-信義鄉-人倫部落-人倫-AP2"},{"lng":120.89705,"city":"南投縣","name":"人倫-AP3","nearby":"","lat":23.77901,"desc":"2-信義鄉-人倫部落-人倫-AP3"},{"lng":120.89559,"city":"南投縣","name":"人倫-AP7","nearby":"","lat":23.77827,"desc":"2-信義鄉-人倫部落-人倫-AP7"},{"lng":120.89662,"city":"南投縣","name":"人倫-AP4","nearby":"","lat":23.77815,"desc":"2-信義鄉-人倫部落-人倫-AP4"},{"lng":120.89658,"city":"南投縣","name":"人倫-AP5","nearby":"","lat":23.77715,"desc":"2-信義鄉-人倫部落-人倫-AP5"},{"lng":120.8966,"city":"南投縣","name":"人倫-AP6","nearby":"","lat":23.77659,"desc":"2-信義鄉-人倫部落-人倫-AP6"},{"lng":120.89565,"city":"南投縣","name":"人倫-AP1","nearby":"","lat":23.78016,"desc":"2-信義鄉-人倫部落-人倫-AP1"},{"lng":120.87054,"city":"南投縣","name":"希哪巴瀾-AP1","nearby":"","lat":23.63972,"desc":"2-信義鄉-希哪巴瀾部落-希哪巴瀾-AP1"},{"lng":120.8703,"city":"南投縣","name":"希哪巴瀾-AP2","nearby":"","lat":23.64048,"desc":"2-信義鄉-希哪巴瀾部落-希哪巴瀾-AP2"},{"lng":120.87019,"city":"南投縣","name":"希哪巴瀾-AP3","nearby":"","lat":23.64138,"desc":"2-信義鄉-希哪巴瀾部落-希哪巴瀾-AP3"},{"lng":120.87089,"city":"南投縣","name":"希哪巴瀾-AP4","nearby":"","lat":23.64106,"desc":"2-信義鄉-希哪巴瀾部落-希哪巴瀾-AP4"},{"lng":120.87129,"city":"南投縣","name":"希哪巴瀾-AP5","nearby":"","lat":23.64069,"desc":"2-信義鄉-希哪巴瀾部落-希哪巴瀾-AP5"},{"lng":120.8743,"city":"南投縣","name":"希哪巴瀾-AP6","nearby":"","lat":23.64206,"desc":"2-信義鄉-希哪巴瀾部落-希哪巴瀾-AP6"},{"lng":121.1085,"city":"南投縣","name":"親愛-AP1","nearby":"1","lat":23.96844,"desc":"3-仁愛鄉-親愛部落-親愛-AP1"},{"lng":121.10776,"city":"南投縣","name":"親愛-AP2","nearby":"","lat":23.96817,"desc":"3-仁愛鄉-親愛部落-親愛-AP2"},{"lng":121.10643,"city":"南投縣","name":"親愛-AP3","nearby":"","lat":23.9676,"desc":"3-仁愛鄉-親愛部落-親愛-AP3"},{"lng":121.10561,"city":"南投縣","name":"親愛-AP4","nearby":"","lat":23.96736,"desc":"3-仁愛鄉-親愛部落-親愛-AP4"},{"lng":121.1049,"city":"南投縣","name":"親愛-AP5","nearby":"","lat":23.96836,"desc":"3-仁愛鄉-親愛部落-親愛-AP5"},{"lng":121.10505,"city":"南投縣","name":"親愛-AP6","nearby":"","lat":23.96927,"desc":"3-仁愛鄉-親愛部落-親愛-AP6"},{"lng":121.14771,"city":"南投縣","name":"史努櫻-AP1","nearby":"","lat":24.02606,"desc":"3-仁愛鄉-史努櫻部落-史努櫻-AP1"},{"lng":121.14756,"city":"南投縣","name":"史努櫻-AP2","nearby":"","lat":24.02552,"desc":"3-仁愛鄉-史努櫻部落-史努櫻-AP2"},{"lng":121.14686,"city":"南投縣","name":"史努櫻-AP3","nearby":"","lat":24.02617,"desc":"3-仁愛鄉-史努櫻部落-史努櫻-AP3"},{"lng":121.14931,"city":"南投縣","name":"史努櫻-AP4","nearby":"","lat":24.0271,"desc":"3-仁愛鄉-史努櫻部落-史努櫻-AP4"},{"lng":121.14905,"city":"南投縣","name":"史努櫻-AP5","nearby":"","lat":24.02751,"desc":"3-仁愛鄉-史努櫻部落-史努櫻-AP5"},{"lng":121.14904,"city":"南投縣","name":"史努櫻-AP6","nearby":"","lat":24.02675,"desc":"3-仁愛鄉-史努櫻部落-史努櫻-AP6"},{"lng":121.15291,"city":"南投縣","name":"史努櫻-AP7","nearby":"1","lat":24.02728,"desc":"3-仁愛鄉-史努櫻部落-史努櫻-AP7"},{"lng":121.18565,"city":"南投縣","name":"廬山-AP1","nearby":"","lat":24.03501,"desc":"3-仁愛鄉-廬山部落-廬山-AP1"},{"lng":121.18539,"city":"南投縣","name":"廬山-AP2","nearby":"","lat":24.03389,"desc":"3-仁愛鄉-廬山部落-廬山-AP2"},{"lng":121.18497,"city":"南投縣","name":"廬山-AP5","nearby":"","lat":24.03476,"desc":"3-仁愛鄉-廬山部落-廬山-AP5"},{"lng":121.18462,"city":"南投縣","name":"廬山-AP3","nearby":"","lat":24.03297,"desc":"3-仁愛鄉-廬山部落-廬山-AP3"},{"lng":121.18459,"city":"南投縣","name":"廬山-AP4","nearby":"","lat":24.0317,"desc":"3-仁愛鄉-廬山部落-廬山-AP4"},{"lng":121.18907,"city":"南投縣","name":"新望洋-AP1","nearby":"","lat":24.14747,"desc":"5-仁愛鄉-新望洋部落-新望洋-AP1"},{"lng":121.18999,"city":"南投縣","name":"新望洋-AP2","nearby":"","lat":24.14817,"desc":"5-仁愛鄉-新望洋部落-新望洋-AP2"},{"lng":121.19007,"city":"南投縣","name":"新望洋-AP3","nearby":"","lat":24.14713,"desc":"5-仁愛鄉-新望洋部落-新望洋-AP3"},{"lng":121.19043,"city":"南投縣","name":"新望洋-AP4","nearby":"1","lat":24.14634,"desc":"5-仁愛鄉-新望洋部落-新望洋-AP4"},{"lng":120.88544,"city":"南投縣","name":"NT-CM-AP1","nearby":"","lat":23.617252,"desc":"4-信義鄉久美部落-NT-CM-AP1"},{"lng":120.88554,"city":"南投縣","name":"NT-CM-AP2","nearby":"","lat":23.617369,"desc":"4-信義鄉久美部落-NT-CM-AP2"},{"lng":120.88497,"city":"南投縣","name":"NT-CM-AP3","nearby":"","lat":23.616417,"desc":"4-信義鄉久美部落-NT-CM-AP3"},{"lng":120.88651,"city":"南投縣","name":"NT-CM-AP4","nearby":"","lat":23.615908,"desc":"4-信義鄉久美部落-NT-CM-AP4"},{"lng":120.88656,"city":"南投縣","name":"NT-CM-AP5","nearby":"","lat":23.616161,"desc":"4-信義鄉久美部落-NT-CM-AP5"},{"lng":120.88579,"city":"南投縣","name":"NT-CM-AP6","nearby":"","lat":23.61795,"desc":"4-信義鄉久美部落-NT-CM-AP6"},{"lng":120.88547,"city":"南投縣","name":"NT-CM-AP7","nearby":"","lat":23.61787,"desc":"4-信義鄉久美部落-NT-CM-AP7"},{"lng":120.98989,"city":"南投縣","name":"NT-KT-AP1","nearby":"","lat":23.907576,"desc":"4-仁愛鄉卡度部落-NT-KT-AP1"},{"lng":120.99056,"city":"南投縣","name":"NT-KT-AP2","nearby":"","lat":23.90768,"desc":"4-仁愛鄉卡度部落-NT-KT-AP2"},{"lng":120.99016,"city":"南投縣","name":"NT-KT-AP3","nearby":"","lat":23.905775,"desc":"4-仁愛鄉卡度部落-NT-KT-AP3"},{"lng":120.99031,"city":"南投縣","name":"NT-KT-AP4","nearby":"","lat":23.905611,"desc":"4-仁愛鄉卡度部落-NT-KT-AP4"},{"lng":120.991394,"city":"南投縣","name":"NT-KT-AP5","nearby":"","lat":23.904104,"desc":"4-仁愛鄉卡度部落-NT-KT-AP5"},{"lng":120.99192,"city":"南投縣","name":"NT-KT-AP6","nearby":"","lat":23.904415,"desc":"4-仁愛鄉卡度部落-NT-KT-AP6"},{"lng":120.99178,"city":"南投縣","name":"NT-KT-AP7","nearby":"","lat":23.903515,"desc":"4-仁愛鄉卡度部落-NT-KT-AP7"},{"lng":120.992485,"city":"南投縣","name":"NT-KT-AP8","nearby":"","lat":23.903788,"desc":"4-仁愛鄉卡度部落-NT-KT-AP8"},{"lng":121.08783,"city":"南投縣","name":"NT-MH-AP1","nearby":"","lat":24.005852,"desc":"4-仁愛鄉眉溪部落-NT-MH-AP1"},{"lng":121.087746,"city":"南投縣","name":"NT-MH-AP2","nearby":"","lat":24.005892,"desc":"4-仁愛鄉眉溪部落-NT-MH-AP2"},{"lng":121.08909,"city":"南投縣","name":"NT-MH-AP3","nearby":"","lat":24.00489,"desc":"4-仁愛鄉眉溪部落-NT-MH-AP3"},{"lng":121.09583,"city":"南投縣","name":"NT-MH-AP4","nearby":"","lat":24.006987,"desc":"4-仁愛鄉眉溪部落-NT-MH-AP4"},{"lng":121.095184,"city":"南投縣","name":"NT-MH-AP5","nearby":"","lat":24.006912,"desc":"4-仁愛鄉眉溪部落-NT-MH-AP5"},{"lng":120.9499,"city":"南投縣","name":"NT-SL-AP1","nearby":"","lat":23.785282,"desc":"4-信義鄉雙龍部落-NT-SL-AP1"},{"lng":120.94774,"city":"南投縣","name":"NT-SL-AP2","nearby":"","lat":23.783684,"desc":"4-信義鄉雙龍部落-NT-SL-AP2"},{"lng":120.94717,"city":"南投縣","name":"NT-SL-AP3","nearby":"","lat":23.783648,"desc":"4-信義鄉雙龍部落-NT-SL-AP3"},{"lng":120.94774,"city":"南投縣","name":"NT-SL-AP4","nearby":"","lat":23.783379,"desc":"4-信義鄉雙龍部落-NT-SL-AP4"},{"lng":120.94438,"city":"南投縣","name":"NT-SL-AP5","nearby":"","lat":23.7823,"desc":"4-信義鄉雙龍部落-NT-SL-AP5"},{"lng":120.948685,"city":"南投縣","name":"NT-SL-AP6","nearby":"","lat":23.784056,"desc":"4-信義鄉雙龍部落-NT-SL-AP6"},{"lng":120.9437,"city":"南投縣","name":"NT-TML-AP1","nearby":"","lat":23.793388,"desc":"4-信義鄉達瑪巒部落-NT-TML-AP1"},{"lng":120.94376,"city":"南投縣","name":"NT-TML-AP2","nearby":"","lat":23.793474,"desc":"4-信義鄉達瑪巒部落-NT-TML-AP2"},{"lng":120.944336,"city":"南投縣","name":"NT-TML-AP3","nearby":"","lat":23.792866,"desc":"4-信義鄉達瑪巒部落-NT-TML-AP3"},{"lng":120.945206,"city":"南投縣","name":"NT-TML-AP4","nearby":"","lat":23.79305,"desc":"4-信義鄉達瑪巒部落-NT-TML-AP4"},{"lng":120.94568,"city":"南投縣","name":"NT-TML-AP5","nearby":"","lat":23.794813,"desc":"4-信義鄉達瑪巒部落-NT-TML-AP5"},{"lng":120.94498,"city":"南投縣","name":"NT-TML-AP6","nearby":"","lat":23.794699,"desc":"4-信義鄉達瑪巒部落-NT-TML-AP6"},{"lng":120.9687,"city":"南投縣","name":"NT-ZY-AP1","nearby":"","lat":24.0634,"desc":"1-仁愛鄉中原部落-NT-ZY-AP1"},{"lng":120.96913,"city":"南投縣","name":"NT-ZY-AP2","nearby":"","lat":24.06349,"desc":"1-仁愛鄉中原部落-NT-ZY-AP2"},{"lng":120.97292,"city":"南投縣","name":"NT-ZY-AP3","nearby":"","lat":24.06664,"desc":"1-仁愛鄉中原部落-NT-ZY-AP3"},{"lng":120.97283,"city":"南投縣","name":"NT-ZY-AP4","nearby":"","lat":24.0666,"desc":"1-仁愛鄉中原部落-NT-ZY-AP4"},{"lng":120.97549,"city":"南投縣","name":"NT-ZY-AP5","nearby":"","lat":24.06946,"desc":"1-仁愛鄉中原部落-NT-ZY-AP5"},{"lng":120.97543,"city":"南投縣","name":"NT-ZY-AP6","nearby":"","lat":24.06956,"desc":"1-仁愛鄉中原部落-NT-ZY-AP6"}]},{"name":"嘉義縣","points":[{"lng":120.68415,"city":"嘉義縣","name":"新美-AP1","nearby":"1","lat":23.33751,"desc":"5-阿里山鄉-新美部落-新美-AP1"},{"lng":120.68357,"city":"嘉義縣","name":"新美-AP2","nearby":"","lat":23.33772,"desc":"5-阿里山鄉-新美部落-新美-AP2"},{"lng":120.68174,"city":"嘉義縣","name":"新美-AP3","nearby":"","lat":23.33302,"desc":"5-阿里山鄉-新美部落-新美-AP3"},{"lng":120.6916,"city":"嘉義縣","name":"新美-AP4","nearby":"","lat":23.34685,"desc":"5-阿里山鄉-新美部落-新美-AP4"},{"lng":120.72141,"city":"嘉義縣","name":"里佳-AP1","nearby":"1","lat":23.40502,"desc":"3-阿里山鄉-里佳部落-里佳-AP1"},{"lng":120.72213,"city":"嘉義縣","name":"里佳-AP2","nearby":"","lat":23.40556,"desc":"3-阿里山鄉-里佳部落-里佳-AP2"},{"lng":120.72181,"city":"嘉義縣","name":"里佳-AP5","nearby":"","lat":23.40447,"desc":"3-阿里山鄉-里佳部落-里佳-AP5"},{"lng":120.7203,"city":"嘉義縣","name":"里佳-AP3","nearby":"","lat":23.40527,"desc":"3-阿里山鄉-里佳部落-里佳-AP3"},{"lng":120.72043,"city":"嘉義縣","name":"里佳-AP4","nearby":"","lat":23.40459,"desc":"3-阿里山鄉-里佳部落-里佳-AP4"},{"lng":120.70302,"city":"嘉義縣","name":"樂野-AP1","nearby":"1","lat":23.46719,"desc":"3-阿里山鄉-樂野部落-樂野-AP1"},{"lng":120.70287,"city":"嘉義縣","name":"樂野-AP2","nearby":"","lat":23.46774,"desc":"3-阿里山鄉-樂野部落-樂野-AP2"},{"lng":120.7022,"city":"嘉義縣","name":"樂野-AP3","nearby":"","lat":23.46779,"desc":"3-阿里山鄉-樂野部落-樂野-AP3"},{"lng":120.70227,"city":"嘉義縣","name":"樂野-AP4","nearby":"","lat":23.46637,"desc":"3-阿里山鄉-樂野部落-樂野-AP4"},{"lng":120.70302,"city":"嘉義縣","name":"樂野-AP5","nearby":"","lat":23.46656,"desc":"3-阿里山鄉-樂野部落-樂野-AP5"},{"lng":120.70186,"city":"嘉義縣","name":"樂野-AP6","nearby":"","lat":23.46712,"desc":"3-阿里山鄉-樂野部落-樂野-AP6"},{"lng":120.66808,"city":"嘉義縣","name":"山美-AP1","nearby":"","lat":23.38437,"desc":"3-阿里山鄉-山美部落-山美-AP1"},{"lng":120.66826,"city":"嘉義縣","name":"山美-AP2","nearby":"","lat":23.38359,"desc":"3-阿里山鄉-山美部落-山美-AP2"},{"lng":120.66856,"city":"嘉義縣","name":"山美-AP3","nearby":"","lat":23.383,"desc":"3-阿里山鄉-山美部落-山美-AP3"},{"lng":120.67193,"city":"嘉義縣","name":"山美-AP4","nearby":"","lat":23.3782,"desc":"3-阿里山鄉-山美部落-山美-AP4"},{"lng":120.6732,"city":"嘉義縣","name":"山美-AP5","nearby":"","lat":23.37727,"desc":"3-阿里山鄉-山美部落-山美-AP5"},{"lng":120.66662,"city":"嘉義縣","name":"CY-CS-AP1","nearby":"","lat":23.300486,"desc":"4-阿里山鄉茶山部落-CY-CS-AP1"},{"lng":120.66479,"city":"嘉義縣","name":"CY-CS-AP2","nearby":"","lat":23.298931,"desc":"4-阿里山鄉茶山部落-CY-CS-AP2"},{"lng":120.66639,"city":"嘉義縣","name":"CY-CS-AP3","nearby":"","lat":23.297125,"desc":"4-阿里山鄉茶山部落-CY-CS-AP3"},{"lng":120.66594,"city":"嘉義縣","name":"CY-CS-AP4","nearby":"","lat":23.297543,"desc":"4-阿里山鄉茶山部落-CY-CS-AP4"},{"lng":120.66477,"city":"嘉義縣","name":"CY-CS-AP5","nearby":"","lat":23.299059,"desc":"4-阿里山鄉茶山部落-CY-CS-AP5"},{"lng":120.73931,"city":"嘉義縣","name":"CY-LC-AP1","nearby":"","lat":23.53025,"desc":"4-阿里山鄉來吉部落-CY-LC-AP1"},{"lng":120.74008,"city":"嘉義縣","name":"CY-LC-AP2","nearby":"","lat":23.529978,"desc":"4-阿里山鄉來吉部落-CY-LC-AP2"},{"lng":120.7463,"city":"嘉義縣","name":"CY-LC-AP3","nearby":"","lat":23.519764,"desc":"4-阿里山鄉來吉部落-CY-LC-AP3"},{"lng":120.74593,"city":"嘉義縣","name":"CY-LC-AP4","nearby":"","lat":23.520159,"desc":"4-阿里山鄉來吉部落-CY-LC-AP4"},{"lng":120.74601,"city":"嘉義縣","name":"CY-LC-AP5","nearby":"","lat":23.519356,"desc":"4-阿里山鄉來吉部落-CY-LC-AP5"},{"lng":120.74606,"city":"嘉義縣","name":"CY-LC-AP6","nearby":"","lat":23.518976,"desc":"4-阿里山鄉來吉部落-CY-LC-AP6"},{"lng":120.757484,"city":"嘉義縣","name":"CY-TFY-AP1","nearby":"","lat":23.463099,"desc":"4-阿里山鄉特富野部落-CY-TFY-AP1"},{"lng":120.757454,"city":"嘉義縣","name":"CY-TFY-AP2","nearby":"","lat":23.462982,"desc":"4-阿里山鄉特富野部落-CY-TFY-AP2"},{"lng":120.75824,"city":"嘉義縣","name":"CY-TFY-AP3","nearby":"","lat":23.462748,"desc":"4-阿里山鄉特富野部落-CY-TFY-AP3"},{"lng":120.75813,"city":"嘉義縣","name":"CY-TFY-AP4","nearby":"","lat":23.462498,"desc":"4-阿里山鄉特富野部落-CY-TFY-AP4"},{"lng":120.74959,"city":"嘉義縣","name":"CY-TP-AP1","nearby":"","lat":23.45427,"desc":"4-阿里山鄉達邦部落-CY-TP-AP1"},{"lng":120.749855,"city":"嘉義縣","name":"CY-TP-AP2","nearby":"","lat":23.45508,"desc":"4-阿里山鄉達邦部落-CY-TP-AP2"},{"lng":120.74864,"city":"嘉義縣","name":"CY-TP-AP3","nearby":"","lat":23.456327,"desc":"4-阿里山鄉達邦部落-CY-TP-AP3"},{"lng":120.74903,"city":"嘉義縣","name":"CY-TP-AP4","nearby":"","lat":23.454262,"desc":"4-阿里山鄉達邦部落-CY-TP-AP4"},{"lng":120.75114,"city":"嘉義縣","name":"CY-TP-AP5","nearby":"","lat":23.455315,"desc":"4-阿里山鄉達邦部落-CY-TP-AP5"},{"lng":120.75145,"city":"嘉義縣","name":"CY-TP-AP6","nearby":"","lat":23.454412,"desc":"4-阿里山鄉達邦部落-CY-TP-AP6"},{"lng":120.749016,"city":"嘉義縣","name":"CY-TP-AP7","nearby":"","lat":23.454441,"desc":"4-阿里山鄉達邦部落-CY-TP-AP7"}]},{"name":"宜蘭縣","points":[{"lng":121.68778,"city":"宜蘭縣","name":"寒溪巷-AP2","nearby":"","lat":24.6106,"desc":"5-大同鄉-寒溪巷部落-寒溪巷-AP2"},{"lng":121.6887,"city":"宜蘭縣","name":"寒溪巷-AP3","nearby":"1","lat":24.61054,"desc":"5-大同鄉-寒溪巷部落-寒溪巷-AP3"},{"lng":121.68831,"city":"宜蘭縣","name":"寒溪巷-AP4","nearby":"","lat":24.60926,"desc":"5-大同鄉-寒溪巷部落-寒溪巷-AP4"},{"lng":121.68765,"city":"宜蘭縣","name":"寒溪巷-AP5","nearby":"","lat":24.60979,"desc":"5-大同鄉-寒溪巷部落-寒溪巷-AP5"},{"lng":121.68672,"city":"宜蘭縣","name":"寒溪巷-AP6","nearby":"","lat":24.60755,"desc":"5-大同鄉-寒溪巷部落-寒溪巷-AP6"},{"lng":121.5299,"city":"宜蘭縣","name":"碼崙-AP1","nearby":"1","lat":24.59928,"desc":"5-大同鄉-碼崙部落-碼崙-AP1"},{"lng":121.52954,"city":"宜蘭縣","name":"碼崙-AP2","nearby":"","lat":24.60006,"desc":"5-大同鄉-碼崙部落-碼崙-AP2"},{"lng":121.52898,"city":"宜蘭縣","name":"碼崙-AP3","nearby":"","lat":24.59958,"desc":"5-大同鄉-碼崙部落-碼崙-AP3"},{"lng":121.4263,"city":"宜蘭縣","name":"四季-AP3","nearby":"1","lat":24.48734,"desc":"3-大同鄉-四季部落-四季-AP3"},{"lng":121.42543,"city":"宜蘭縣","name":"四季-AP1","nearby":"","lat":24.48714,"desc":"3-大同鄉-四季部落-四季-AP1"},{"lng":121.42586,"city":"宜蘭縣","name":"四季-AP2","nearby":"","lat":24.48631,"desc":"3-大同鄉-四季部落-四季-AP2"},{"lng":121.42883,"city":"宜蘭縣","name":"四季-AP4","nearby":"","lat":24.48635,"desc":"3-大同鄉-四季部落-四季-AP4"},{"lng":121.42986,"city":"宜蘭縣","name":"四季-AP5","nearby":"","lat":24.486,"desc":"3-大同鄉-四季部落-四季-AP5"},{"lng":121.42993,"city":"宜蘭縣","name":"四季-AP6","nearby":"","lat":24.48517,"desc":"3-大同鄉-四季部落-四季-AP6"},{"lng":121.37933,"city":"宜蘭縣","name":"南山-AP3","nearby":"1","lat":24.43713,"desc":"3-大同鄉-南山部落-南山-AP3"},{"lng":121.37887,"city":"宜蘭縣","name":"南山-AP1","nearby":"1","lat":24.43527,"desc":"3-大同鄉-南山部落-南山-AP1"},{"lng":121.37994,"city":"宜蘭縣","name":"南山-AP2","nearby":"","lat":24.43645,"desc":"3-大同鄉-南山部落-南山-AP2"},{"lng":121.38059,"city":"宜蘭縣","name":"南山-AP4","nearby":"","lat":24.43719,"desc":"3-大同鄉-南山部落-南山-AP4"},{"lng":121.37939,"city":"宜蘭縣","name":"南山-AP5","nearby":"","lat":24.43792,"desc":"3-大同鄉-南山部落-南山-AP5"},{"lng":121.38078,"city":"宜蘭縣","name":"南山-AP6","nearby":"","lat":24.43923,"desc":"3-大同鄉-南山部落-南山-AP6"},{"lng":121.78584,"city":"宜蘭縣","name":"YL-BYH-AP1","nearby":"","lat":24.474373,"desc":"4-南澳鄉-比亞豪部落-YL-BYH-AP1"},{"lng":121.78538,"city":"宜蘭縣","name":"YL-BYH-AP2","nearby":"","lat":24.474442,"desc":"4-南澳鄉-比亞豪部落-YL-BYH-AP2"},{"lng":121.78627,"city":"宜蘭縣","name":"YL-BYH-AP3","nearby":"","lat":24.475285,"desc":"4-南澳鄉-比亞豪部落-YL-BYH-AP3"},{"lng":121.787125,"city":"宜蘭縣","name":"YL-BYH-AP4","nearby":"","lat":24.475386,"desc":"4-南澳鄉-比亞豪部落-YL-BYH-AP4"},{"lng":121.78657,"city":"宜蘭縣","name":"YL-BYH-AP5","nearby":"","lat":24.474545,"desc":"4-南澳鄉-比亞豪部落-YL-BYH-AP5"},{"lng":121.78657,"city":"宜蘭縣","name":"YL-BYH-AP6","nearby":"","lat":24.474197,"desc":"4-南澳鄉-比亞豪部落-YL-BYH-AP6"},{"lng":121.77599,"city":"宜蘭縣","name":"YL-JY-AP1","nearby":"","lat":24.47065,"desc":"1-南澳鄉-金岳部落-YL-JY-AP1"},{"lng":121.77607,"city":"宜蘭縣","name":"YL-JY-AP2","nearby":"","lat":24.47064,"desc":"1-南澳鄉-金岳部落-YL-JY-AP2"},{"lng":121.7763,"city":"宜蘭縣","name":"YL-JY-AP3","nearby":"","lat":24.47098,"desc":"1-南澳鄉-金岳部落-YL-JY-AP3"},{"lng":121.77643,"city":"宜蘭縣","name":"YL-JY-AP4","nearby":"","lat":24.47096,"desc":"1-南澳鄉-金岳部落-YL-JY-AP4"},{"lng":121.77769,"city":"宜蘭縣","name":"YL-JY-AP5","nearby":"","lat":24.47078,"desc":"1-南澳鄉-金岳部落-YL-JY-AP5"},{"lng":121.77782,"city":"宜蘭縣","name":"YL-JY-AP6","nearby":"","lat":24.47076,"desc":"1-南澳鄉-金岳部落-YL-JY-AP6"},{"lng":121.60969,"city":"宜蘭縣","name":"YL-LP-AP1","nearby":"","lat":24.67655,"desc":"4-大同鄉-崙埤部落-YL-LP-AP1"},{"lng":121.609055,"city":"宜蘭縣","name":"YL-LP-AP2","nearby":"","lat":24.676514,"desc":"4-大同鄉-崙埤部落-YL-LP-AP2"},{"lng":121.60934,"city":"宜蘭縣","name":"YL-LP-AP3","nearby":"","lat":24.677544,"desc":"4-大同鄉-崙埤部落-YL-LP-AP3"},{"lng":121.60895,"city":"宜蘭縣","name":"YL-LP-AP4","nearby":"","lat":24.677078,"desc":"4-大同鄉-崙埤部落-YL-LP-AP4"},{"lng":121.60852,"city":"宜蘭縣","name":"YL-LP-AP5","nearby":"","lat":24.67785,"desc":"4-大同鄉-崙埤部落-YL-LP-AP5"},{"lng":121.60687,"city":"宜蘭縣","name":"YL-LP-AP6","nearby":"","lat":24.682867,"desc":"4-大同鄉-崙埤部落-YL-LP-AP6"},{"lng":121.68653,"city":"宜蘭縣","name":"寒溪巷-AP1","nearby":"","lat":24.60937,"desc":"5-大同鄉-寒溪巷部落-寒溪巷-AP1"}]},{"name":"屏東縣","points":[{"lng":120.65301,"city":"屏東縣","name":"三地-AP4","nearby":"","lat":22.71617,"desc":"2-三地門鄉-三地部落-三地-AP4"},{"lng":120.65232,"city":"屏東縣","name":"三地-AP5","nearby":"","lat":22.71643,"desc":"2-三地門鄉-三地部落-三地-AP5"},{"lng":120.65174,"city":"屏東縣","name":"三地-AP6","nearby":"","lat":22.7155,"desc":"2-三地門鄉-三地部落-三地-AP6"},{"lng":120.65302,"city":"屏東縣","name":"三地-AP1","nearby":"1","lat":22.71492,"desc":"2-三地門鄉-三地部落-三地-AP1"},{"lng":120.6535,"city":"屏東縣","name":"三地-AP2","nearby":"","lat":22.71418,"desc":"2-三地門鄉-三地部落-三地-AP2"},{"lng":120.65205,"city":"屏東縣","name":"三地-AP8","nearby":"","lat":22.71474,"desc":"2-三地門鄉-三地部落-三地-AP8"},{"lng":120.65131,"city":"屏東縣","name":"三地-AP3","nearby":"","lat":22.71711,"desc":"2-三地門鄉-三地部落-三地-AP3"},{"lng":120.65107,"city":"屏東縣","name":"三地-AP9","nearby":"","lat":22.71754,"desc":"2-三地門鄉-三地部落-三地-AP9"},{"lng":120.65439,"city":"屏東縣","name":"三地-AP7","nearby":"1","lat":22.71569,"desc":"2-三地門鄉-三地部落-三地-AP7"},{"lng":120.6379,"city":"屏東縣","name":"安坡-AP1","nearby":"1","lat":22.79806,"desc":"5-三地門鄉-安坡部落-安坡-AP1"},{"lng":120.63838,"city":"屏東縣","name":"安坡-AP3","nearby":"","lat":22.79901,"desc":"5-三地門鄉-安坡部落-安坡-AP3"},{"lng":120.63882,"city":"屏東縣","name":"安坡-AP4","nearby":"","lat":22.7982,"desc":"5-三地門鄉-安坡部落-安坡-AP4"},{"lng":120.63503,"city":"屏東縣","name":"安坡-AP2","nearby":"","lat":22.79553,"desc":"5-三地門鄉-安坡部落-安坡-AP2"},{"lng":120.66744,"city":"屏東縣","name":"達來-AP1","nearby":"","lat":22.72518,"desc":"5-三地門鄉-達來部落-達來-AP1"},{"lng":120.66755,"city":"屏東縣","name":"達來-AP2","nearby":"1","lat":22.72598,"desc":"5-三地門鄉-達來部落-達來-AP2"},{"lng":120.66838,"city":"屏東縣","name":"達來-AP3","nearby":"","lat":22.72642,"desc":"5-三地門鄉-達來部落-達來-AP3"},{"lng":120.66769,"city":"屏東縣","name":"達來-AP4","nearby":"","lat":22.72913,"desc":"5-三地門鄉-達來部落-達來-AP4"},{"lng":120.74698,"city":"屏東縣","name":"大梅-AP1","nearby":"1","lat":22.10166,"desc":"5-牡丹鄉-大梅部落-大梅-AP1"},{"lng":120.74625,"city":"屏東縣","name":"大梅-AP2","nearby":"","lat":22.10096,"desc":"5-牡丹鄉-大梅部落-大梅-AP2"},{"lng":120.74776,"city":"屏東縣","name":"大梅-AP3","nearby":"","lat":22.09921,"desc":"5-牡丹鄉-大梅部落-大梅-AP3"},{"lng":120.6764,"city":"屏東縣","name":"來義-AP1","nearby":"1","lat":22.5261,"desc":"5-來義鄉-來義部落-來義-AP1"},{"lng":120.67639,"city":"屏東縣","name":"來義-AP2","nearby":"","lat":22.52479,"desc":"5-來義鄉-來義部落-來義-AP2"},{"lng":120.64123,"city":"屏東縣","name":"高見-AP1","nearby":"","lat":22.43606,"desc":"5-來義鄉-高見部落-高見-AP1"},{"lng":120.63955,"city":"屏東縣","name":"高見-AP4","nearby":"","lat":22.43544,"desc":"5-來義鄉-高見部落-高見-AP4"},{"lng":120.64,"city":"屏東縣","name":"高見-AP6","nearby":"","lat":22.43647,"desc":"5-來義鄉-高見部落-高見-AP6"},{"lng":120.63807,"city":"屏東縣","name":"高見-AP5","nearby":"","lat":22.43477,"desc":"5-來義鄉-高見部落-高見-AP5"},{"lng":120.64241,"city":"屏東縣","name":"高見-AP2","nearby":"","lat":22.43641,"desc":"5-來義鄉-高見部落-高見-AP2"},{"lng":120.64324,"city":"屏東縣","name":"高見-AP3","nearby":"1","lat":22.43674,"desc":"5-來義鄉-高見部落-高見-AP3"},{"lng":120.62144,"city":"屏東縣","name":"望嘉-AP1","nearby":"1","lat":22.46373,"desc":"5-來義鄉-望嘉部落-望嘉-AP1"},{"lng":120.62058,"city":"屏東縣","name":"望嘉-AP4","nearby":"","lat":22.46413,"desc":"5-來義鄉-望嘉部落-望嘉-AP4"},{"lng":120.62154,"city":"屏東縣","name":"望嘉-AP2","nearby":"","lat":22.46304,"desc":"5-來義鄉-望嘉部落-望嘉-AP2"},{"lng":120.61984,"city":"屏東縣","name":"望嘉-AP3","nearby":"","lat":22.4645,"desc":"5-來義鄉-望嘉部落-望嘉-AP3"},{"lng":120.61906,"city":"屏東縣","name":"望嘉-AP5","nearby":"","lat":22.46493,"desc":"5-來義鄉-望嘉部落-望嘉-AP5"},{"lng":120.61941,"city":"屏東縣","name":"望嘉-AP6","nearby":"","lat":22.4638,"desc":"5-來義鄉-望嘉部落-望嘉-AP6"},{"lng":120.63863,"city":"屏東縣","name":"大社-AP1","nearby":"1","lat":22.69413,"desc":"2-三地門鄉-大社部落-大社-AP1"},{"lng":120.63909,"city":"屏東縣","name":"大社-AP2","nearby":"","lat":22.69417,"desc":"2-三地門鄉-大社部落-大社-AP2"},{"lng":120.64092,"city":"屏東縣","name":"大社-AP3","nearby":"","lat":22.69661,"desc":"2-三地門鄉-大社部落-大社-AP3"},{"lng":120.63779,"city":"屏東縣","name":"大社-AP4","nearby":"","lat":22.69354,"desc":"2-三地門鄉-大社部落-大社-AP4"},{"lng":120.63712,"city":"屏東縣","name":"大社-AP5","nearby":"","lat":22.69297,"desc":"2-三地門鄉-大社部落-大社-AP5"},{"lng":120.63652,"city":"屏東縣","name":"大社-AP6","nearby":"","lat":22.69187,"desc":"2-三地門鄉-大社部落-大社-AP6"},{"lng":120.58259,"city":"屏東縣","name":"新來義社區-AP1","nearby":"1","lat":22.50884,"desc":"5-來義鄉-新來義社區-新來義社區-AP1"},{"lng":120.57976,"city":"屏東縣","name":"新來義社區-AP5","nearby":"","lat":22.50875,"desc":"5-來義鄉-新來義社區-新來義社區-AP5"},{"lng":120.57944,"city":"屏東縣","name":"新來義社區-AP6","nearby":"","lat":22.5075,"desc":"5-來義鄉-新來義社區-新來義社區-AP6"},{"lng":120.58165,"city":"屏東縣","name":"新來義社區-AP3","nearby":"","lat":22.50923,"desc":"5-來義鄉-新來義社區-新來義社區-AP3"},{"lng":120.58045,"city":"屏東縣","name":"新來義社區-AP4","nearby":"","lat":22.50938,"desc":"5-來義鄉-新來義社區-新來義社區-AP4"},{"lng":120.58112,"city":"屏東縣","name":"新來義社區-AP7","nearby":"","lat":22.50737,"desc":"5-來義鄉-新來義社區-新來義社區-AP7"},{"lng":120.58273,"city":"屏東縣","name":"新來義社區-AP8","nearby":"","lat":22.50778,"desc":"5-來義鄉-新來義社區-新來義社區-AP8"},{"lng":120.58377,"city":"屏東縣","name":"新來義社區-AP2","nearby":"","lat":22.5086,"desc":"5-來義鄉-新來義社區-新來義社區-AP2"},{"lng":120.58456,"city":"屏東縣","name":"新來義社區-AP9","nearby":"","lat":22.50828,"desc":"5-來義鄉-新來義社區-新來義社區-AP9"},{"lng":120.63169,"city":"屏東縣","name":"佳平-AP1","nearby":"","lat":22.59153,"desc":"5-泰武鄉-佳平部落-佳平-AP1"},{"lng":120.63264,"city":"屏東縣","name":"佳平-AP2","nearby":"","lat":22.59176,"desc":"5-泰武鄉-佳平部落-佳平-AP2"},{"lng":120.63133,"city":"屏東縣","name":"佳平-AP5","nearby":"","lat":22.59215,"desc":"5-泰武鄉-佳平部落-佳平-AP5"},{"lng":120.63057,"city":"屏東縣","name":"佳平-AP3","nearby":"","lat":22.59148,"desc":"5-泰武鄉-佳平部落-佳平-AP3"},{"lng":120.62915,"city":"屏東縣","name":"佳平-AP4","nearby":"1","lat":22.59146,"desc":"5-泰武鄉-佳平部落-佳平-AP4"},{"lng":120.85065,"city":"屏東縣","name":"內文-AP1","nearby":"","lat":22.21876,"desc":"5-獅子鄉-內文部落-內文-AP1"},{"lng":120.85011,"city":"屏東縣","name":"內文-AP2","nearby":"1","lat":22.21989,"desc":"5-獅子鄉-內文部落-內文-AP2"},{"lng":120.85068,"city":"屏東縣","name":"內文-AP3","nearby":"","lat":22.21731,"desc":"5-獅子鄉-內文部落-內文-AP3"},{"lng":120.80131,"city":"屏東縣","name":"橋西-AP1","nearby":"1","lat":22.23395,"desc":"5-獅子鄉-橋西部落-橋西-AP1"},{"lng":120.80041,"city":"屏東縣","name":"橋西-AP2","nearby":"","lat":22.23324,"desc":"5-獅子鄉-橋西部落-橋西-AP2"},{"lng":120.63687,"city":"屏東縣","name":"涼山-AP1","nearby":"","lat":22.69014,"desc":"5-瑪家鄉-涼山部落-涼山-AP1"},{"lng":120.63932,"city":"屏東縣","name":"涼山-AP6","nearby":"1","lat":22.69122,"desc":"5-瑪家鄉-涼山部落-涼山-AP6"},{"lng":120.63777,"city":"屏東縣","name":"涼山-AP2","nearby":"","lat":22.69031,"desc":"5-瑪家鄉-涼山部落-涼山-AP2"},{"lng":120.6379,"city":"屏東縣","name":"涼山-AP3","nearby":"","lat":22.68988,"desc":"5-瑪家鄉-涼山部落-涼山-AP3"},{"lng":120.63869,"city":"屏東縣","name":"涼山-AP4","nearby":"","lat":22.69035,"desc":"5-瑪家鄉-涼山部落-涼山-AP4"},{"lng":120.63966,"city":"屏東縣","name":"涼山-AP5","nearby":"","lat":22.691,"desc":"5-瑪家鄉-涼山部落-涼山-AP5"},{"lng":120.6404,"city":"屏東縣","name":"青山-AP1","nearby":"","lat":22.82017,"desc":"2-三地門鄉-青山部落-青山-AP1"},{"lng":120.63997,"city":"屏東縣","name":"青山-AP2","nearby":"","lat":22.81936,"desc":"2-三地門鄉-青山部落-青山-AP2"},{"lng":120.64057,"city":"屏東縣","name":"青山-AP3","nearby":"","lat":22.81852,"desc":"2-三地門鄉-青山部落-青山-AP3"},{"lng":120.64087,"city":"屏東縣","name":"青山-AP4","nearby":"","lat":22.8181,"desc":"2-三地門鄉-青山部落-青山-AP4"},{"lng":120.6403,"city":"屏東縣","name":"青山-AP5","nearby":"","lat":22.81671,"desc":"2-三地門鄉-青山部落-青山-AP5"},{"lng":120.77425,"city":"屏東縣","name":"石門-AP1","nearby":"","lat":22.12586,"desc":"2-牡丹鄉-石門部落-石門-AP1"},{"lng":120.77495,"city":"屏東縣","name":"石門-AP4","nearby":"","lat":22.12676,"desc":"2-牡丹鄉-石門部落-石門-AP4"},{"lng":120.7734,"city":"屏東縣","name":"石門-AP2","nearby":"","lat":22.12568,"desc":"2-牡丹鄉-石門部落-石門-AP2"},{"lng":120.77381,"city":"屏東縣","name":"石門-AP3","nearby":"","lat":22.1267,"desc":"2-牡丹鄉-石門部落-石門-AP3"},{"lng":120.77585,"city":"屏東縣","name":"石門-AP5","nearby":"","lat":22.12762,"desc":"2-牡丹鄉-石門部落-石門-AP5"},{"lng":120.77746,"city":"屏東縣","name":"石門-AP6","nearby":"","lat":22.12936,"desc":"2-牡丹鄉-石門部落-石門-AP6"},{"lng":120.84659,"city":"屏東縣","name":"高士-AP1","nearby":"","lat":22.12048,"desc":"2-牡丹鄉-高士部落-高士-AP1"},{"lng":120.84753,"city":"屏東縣","name":"高士-AP2","nearby":"","lat":22.12089,"desc":"2-牡丹鄉-高士部落-高士-AP2"},{"lng":120.84671,"city":"屏東縣","name":"高士-AP3","nearby":"","lat":22.12133,"desc":"2-牡丹鄉-高士部落-高士-AP3"},{"lng":120.83808,"city":"屏東縣","name":"高士-AP4","nearby":"","lat":22.12216,"desc":"2-牡丹鄉-高士部落-高士-AP4"},{"lng":120.83713,"city":"屏東縣","name":"高士-AP5","nearby":"","lat":22.12128,"desc":"2-牡丹鄉-高士部落-高士-AP5"},{"lng":120.83992,"city":"屏東縣","name":"高士-AP6","nearby":"","lat":22.12345,"desc":"2-牡丹鄉-高士部落-高士-AP6"},{"lng":120.63534,"city":"屏東縣","name":"武潭-AP4","nearby":"","lat":22.57825,"desc":"2-泰武鄉-武潭部落-武潭-AP4"},{"lng":120.63632,"city":"屏東縣","name":"武潭-AP5","nearby":"","lat":22.57775,"desc":"2-泰武鄉-武潭部落-武潭-AP5"},{"lng":120.63511,"city":"屏東縣","name":"武潭-AP6","nearby":"","lat":22.57719,"desc":"2-泰武鄉-武潭部落-武潭-AP6"},{"lng":120.63549,"city":"屏東縣","name":"武潭-AP3","nearby":"","lat":22.57871,"desc":"2-泰武鄉-武潭部落-武潭-AP3"},{"lng":120.63494,"city":"屏東縣","name":"武潭-AP7","nearby":"","lat":22.57777,"desc":"2-泰武鄉-武潭部落-武潭-AP7"},{"lng":120.63381,"city":"屏東縣","name":"武潭-AP2","nearby":"","lat":22.57906,"desc":"2-泰武鄉-武潭部落-武潭-AP2"},{"lng":120.63401,"city":"屏東縣","name":"武潭-AP8","nearby":"","lat":22.57811,"desc":"2-泰武鄉-武潭部落-武潭-AP8"},{"lng":120.63236,"city":"屏東縣","name":"武潭-AP1","nearby":"","lat":22.57818,"desc":"2-泰武鄉-武潭部落-武潭-AP1"},{"lng":120.61875,"city":"屏東縣","name":"玉泉-AP2","nearby":"","lat":22.70883,"desc":"2-瑪家鄉-玉泉部落-玉泉-AP2"},{"lng":120.61761,"city":"屏東縣","name":"玉泉-AP1","nearby":"","lat":22.71,"desc":"2-瑪家鄉-玉泉部落-玉泉-AP1"},{"lng":120.61903,"city":"屏東縣","name":"玉泉-AP3","nearby":"","lat":22.70854,"desc":"2-瑪家鄉-玉泉部落-玉泉-AP3"},{"lng":120.61955,"city":"屏東縣","name":"玉泉-AP4","nearby":"","lat":22.70879,"desc":"2-瑪家鄉-玉泉部落-玉泉-AP4"},{"lng":120.61941,"city":"屏東縣","name":"玉泉-AP5","nearby":"","lat":22.7081,"desc":"2-瑪家鄉-玉泉部落-玉泉-AP5"},{"lng":120.61818,"city":"屏東縣","name":"玉泉-AP6","nearby":"","lat":22.70805,"desc":"2-瑪家鄉-玉泉部落-玉泉-AP6"},{"lng":120.63104,"city":"屏東縣","name":"佳義-AP1","nearby":"","lat":22.65381,"desc":"2-瑪家鄉-佳義部落-佳義-AP1"},{"lng":120.6331,"city":"屏東縣","name":"佳義-AP5","nearby":"","lat":22.65371,"desc":"2-瑪家鄉-佳義部落-佳義-AP5"},{"lng":120.6322,"city":"屏東縣","name":"佳義-AP6","nearby":"","lat":22.65369,"desc":"2-瑪家鄉-佳義部落-佳義-AP6"},{"lng":120.63072,"city":"屏東縣","name":"佳義-AP2","nearby":"","lat":22.65435,"desc":"2-瑪家鄉-佳義部落-佳義-AP2"},{"lng":120.63026,"city":"屏東縣","name":"佳義-AP3","nearby":"","lat":22.65484,"desc":"2-瑪家鄉-佳義部落-佳義-AP3"},{"lng":120.63212,"city":"屏東縣","name":"佳義-AP4","nearby":"","lat":22.65451,"desc":"2-瑪家鄉-佳義部落-佳義-AP4"},{"lng":120.73193,"city":"屏東縣","name":"霧臺-AP1","nearby":"1","lat":22.7442,"desc":"2-霧臺鄉-霧臺部落-霧臺-AP1"},{"lng":120.73186,"city":"屏東縣","name":"霧臺-AP2","nearby":"1","lat":22.74402,"desc":"2-霧臺鄉-霧臺部落-霧臺-AP2"},{"lng":120.73137,"city":"屏東縣","name":"霧臺-AP3","nearby":"","lat":22.74304,"desc":"2-霧臺鄉-霧臺部落-霧臺-AP3"},{"lng":120.7308,"city":"屏東縣","name":"霧臺-AP4","nearby":"","lat":22.74427,"desc":"2-霧臺鄉-霧臺部落-霧臺-AP4"},{"lng":120.73098,"city":"屏東縣","name":"霧臺-AP5","nearby":"","lat":22.74465,"desc":"2-霧臺鄉-霧臺部落-霧臺-AP5"},{"lng":120.73181,"city":"屏東縣","name":"霧臺-AP6","nearby":"","lat":22.74456,"desc":"2-霧臺鄉-霧臺部落-霧臺-AP6"},{"lng":120.73141,"city":"屏東縣","name":"霧臺-AP7","nearby":"","lat":22.7441,"desc":"2-霧臺鄉-霧臺部落-霧臺-AP7"},{"lng":120.73054,"city":"屏東縣","name":"霧臺-AP8","nearby":"","lat":22.74541,"desc":"2-霧臺鄉-霧臺部落-霧臺-AP8"},{"lng":120.73112,"city":"屏東縣","name":"霧臺-AP9","nearby":"","lat":22.7456,"desc":"2-霧臺鄉-霧臺部落-霧臺-AP9"},{"lng":120.62672,"city":"屏東縣","name":"七佳-AP1","nearby":"","lat":22.42779,"desc":"3-春日鄉-七佳部落-七佳-AP1"},{"lng":120.62734,"city":"屏東縣","name":"七佳-AP2","nearby":"","lat":22.42747,"desc":"3-春日鄉-七佳部落-七佳-AP2"},{"lng":120.62807,"city":"屏東縣","name":"七佳-AP3","nearby":"","lat":22.42819,"desc":"3-春日鄉-七佳部落-七佳-AP3"},{"lng":120.62945,"city":"屏東縣","name":"七佳-AP4","nearby":"","lat":22.42827,"desc":"3-春日鄉-七佳部落-七佳-AP4"},{"lng":120.62863,"city":"屏東縣","name":"七佳-AP6","nearby":"","lat":22.42859,"desc":"3-春日鄉-七佳部落-七佳-AP6"},{"lng":120.62759,"city":"屏東縣","name":"七佳-AP5","nearby":"","lat":22.42873,"desc":"3-春日鄉-七佳部落-七佳-AP5"},{"lng":120.62697,"city":"屏東縣","name":"七佳-AP7","nearby":"","lat":22.42896,"desc":"3-春日鄉-七佳部落-七佳-AP7"},{"lng":120.62749,"city":"屏東縣","name":"七佳-AP8","nearby":"","lat":22.4295,"desc":"3-春日鄉-七佳部落-七佳-AP8"},{"lng":120.62355,"city":"屏東縣","name":"文樂-AP1","nearby":"","lat":22.49355,"desc":"3-來義鄉-文樂部落-文樂-AP1"},{"lng":120.62437,"city":"屏東縣","name":"文樂-AP2","nearby":"","lat":22.49328,"desc":"3-來義鄉-文樂部落-文樂-AP2"},{"lng":120.62486,"city":"屏東縣","name":"文樂-AP3","nearby":"","lat":22.49329,"desc":"3-來義鄉-文樂部落-文樂-AP3"},{"lng":120.62469,"city":"屏東縣","name":"文樂-AP4","nearby":"","lat":22.49252,"desc":"3-來義鄉-文樂部落-文樂-AP4"},{"lng":120.62484,"city":"屏東縣","name":"文樂-AP5","nearby":"","lat":22.49144,"desc":"3-來義鄉-文樂部落-文樂-AP5"},{"lng":120.62581,"city":"屏東縣","name":"文樂-AP6","nearby":"","lat":22.49082,"desc":"3-來義鄉-文樂部落-文樂-AP6"},{"lng":120.61212,"city":"屏東縣","name":"吾拉魯滋-AP2","nearby":"","lat":22.60435,"desc":"3-泰武鄉-吾拉魯滋部落-吾拉魯滋-AP2"},{"lng":120.61212,"city":"屏東縣","name":"吾拉魯滋-AP2","nearby":"","lat":22.60435,"desc":"3-泰武鄉-吾拉魯滋部落-吾拉魯滋-AP2"},{"lng":120.61103,"city":"屏東縣","name":"吾拉魯滋-AP1","nearby":"1","lat":22.60449,"desc":"3-泰武鄉-吾拉魯滋部落-吾拉魯滋-AP1"},{"lng":120.61107,"city":"屏東縣","name":"吾拉魯滋-AP3","nearby":"","lat":22.60528,"desc":"3-泰武鄉-吾拉魯滋部落-吾拉魯滋-AP3"},{"lng":120.61099,"city":"屏東縣","name":"吾拉魯滋-AP4","nearby":"","lat":22.60709,"desc":"3-泰武鄉-吾拉魯滋部落-吾拉魯滋-AP4"},{"lng":120.61105,"city":"屏東縣","name":"吾拉魯滋-AP8","nearby":"","lat":22.60602,"desc":"3-泰武鄉-吾拉魯滋部落-吾拉魯滋-AP8"},{"lng":120.6125,"city":"屏東縣","name":"吾拉魯滋-AP5","nearby":"","lat":22.60661,"desc":"3-泰武鄉-吾拉魯滋部落-吾拉魯滋-AP5"},{"lng":120.61194,"city":"屏東縣","name":"吾拉魯滋-AP6","nearby":"","lat":22.60593,"desc":"3-泰武鄉-吾拉魯滋部落-吾拉魯滋-AP6"},{"lng":120.61253,"city":"屏東縣","name":"吾拉魯滋-AP7","nearby":"","lat":22.60516,"desc":"3-泰武鄉-吾拉魯滋部落-吾拉魯滋-AP7"},{"lng":120.6478,"city":"屏東縣","name":"北葉-AP1","nearby":"","lat":22.70325,"desc":"3-瑪家鄉-北葉部落-北葉-AP1"},{"lng":120.64718,"city":"屏東縣","name":"北葉-AP2","nearby":"","lat":22.70288,"desc":"3-瑪家鄉-北葉部落-北葉-AP2"},{"lng":120.6462,"city":"屏東縣","name":"北葉-AP3","nearby":"","lat":22.70181,"desc":"3-瑪家鄉-北葉部落-北葉-AP3"},{"lng":120.64521,"city":"屏東縣","name":"北葉-AP4","nearby":"","lat":22.70079,"desc":"3-瑪家鄉-北葉部落-北葉-AP4"},{"lng":120.6471,"city":"屏東縣","name":"北葉-AP5","nearby":"","lat":22.70152,"desc":"3-瑪家鄉-北葉部落-北葉-AP5"},{"lng":120.6478,"city":"屏東縣","name":"北葉-AP6","nearby":"","lat":22.70126,"desc":"3-瑪家鄉-北葉部落-北葉-AP6"},{"lng":120.64617,"city":"屏東縣","name":"北葉-AP7","nearby":"","lat":22.70043,"desc":"3-瑪家鄉-北葉部落-北葉-AP7"},{"lng":120.64679,"city":"屏東縣","name":"北葉-AP8","nearby":"","lat":22.70016,"desc":"3-瑪家鄉-北葉部落-北葉-AP8"},{"lng":120.85016,"city":"屏東縣","name":"PD-DY-AP1","nearby":"","lat":22.20354,"desc":"1-牡丹鄉東源部落-PD-DY-AP1"},{"lng":120.84991,"city":"屏東縣","name":"PD-DY-AP2","nearby":"","lat":22.20328,"desc":"1-牡丹鄉東源部落-PD-DY-AP2"},{"lng":120.85061,"city":"屏東縣","name":"PD-DY-AP3","nearby":"","lat":22.20397,"desc":"1-牡丹鄉東源部落-PD-DY-AP3"},{"lng":120.8508,"city":"屏東縣","name":"PD-DY-AP4","nearby":"","lat":22.20418,"desc":"1-牡丹鄉東源部落-PD-DY-AP4"},{"lng":120.85229,"city":"屏東縣","name":"PD-DY-AP5","nearby":"","lat":22.20559,"desc":"1-牡丹鄉東源部落-PD-DY-AP5"},{"lng":120.85239,"city":"屏東縣","name":"PD-DY-AP6","nearby":"","lat":22.20582,"desc":"1-牡丹鄉東源部落-PD-DY-AP6"},{"lng":120.638435,"city":"屏東縣","name":"PT-CY-AP1","nearby":"","lat":22.837656,"desc":"4-三地門鄉青葉部落-PT-CY-AP1"},{"lng":120.63788,"city":"屏東縣","name":"PT-CY-AP2","nearby":"","lat":22.83762,"desc":"4-三地門鄉青葉部落-PT-CY-AP2"},{"lng":120.6,"city":"屏東縣","name":"PT-CY-AP3","nearby":"","lat":22.838219,"desc":"4-三地門鄉青葉部落-PT-CY-AP3"},{"lng":120.6,"city":"屏東縣","name":"PT-CY-AP4","nearby":"","lat":22.838253,"desc":"4-三地門鄉青葉部落-PT-CY-AP4"},{"lng":120.63837,"city":"屏東縣","name":"PT-CY-AP5","nearby":"","lat":22.838974,"desc":"4-三地門鄉青葉部落-PT-CY-AP5"},{"lng":120.63779,"city":"屏東縣","name":"PT-CY-AP6","nearby":"","lat":22.839235,"desc":"4-三地門鄉青葉部落-PT-CY-AP6"},{"lng":120.87985,"city":"屏東縣","name":"PT-HH-AP1","nearby":"","lat":22.191006,"desc":"4-牡丹鄉旭海(馬查蘭)部落-PT-HH-AP1"},{"lng":120.8795,"city":"屏東縣","name":"PT-HH-AP2","nearby":"","lat":22.190825,"desc":"4-牡丹鄉旭海(馬查蘭)部落-PT-HH-AP2"},{"lng":120.88111,"city":"屏東縣","name":"PT-HH-AP3","nearby":"","lat":22.192875,"desc":"4-牡丹鄉旭海(馬查蘭)部落-PT-HH-AP3"},{"lng":120.88081,"city":"屏東縣","name":"PT-HH-AP4","nearby":"","lat":22.193233,"desc":"4-牡丹鄉旭海(馬查蘭)部落-PT-HH-AP4"},{"lng":120.88923,"city":"屏東縣","name":"PT-HH-AP5","nearby":"","lat":22.19581,"desc":"4-牡丹鄉旭海(馬查蘭)部落-PT-HH-AP5"},{"lng":120.889465,"city":"屏東縣","name":"PT-HH-AP6","nearby":"","lat":22.196278,"desc":"4-牡丹鄉旭海(馬查蘭)部落-PT-HH-AP6"},{"lng":120.87766,"city":"屏東縣","name":"PT-HH-AP7","nearby":"","lat":22.189934,"desc":"4-牡丹鄉旭海(馬查蘭)部落-PT-HH-AP7"},{"lng":120.79877,"city":"屏東縣","name":"PT-HTP-AP1","nearby":"","lat":22.230188,"desc":"4-獅子鄉下草埔部落-PT-HTP-AP1"},{"lng":120.79927,"city":"屏東縣","name":"PT-HTP-AP2","nearby":"","lat":22.230072,"desc":"4-獅子鄉下草埔部落-PT-HTP-AP2"},{"lng":120.80131,"city":"屏東縣","name":"PT-HTP-AP3","nearby":"","lat":22.233301,"desc":"4-獅子鄉下草埔部落-PT-HTP-AP3"},{"lng":120.80101,"city":"屏東縣","name":"PT-HTP-AP4","nearby":"","lat":22.233662,"desc":"4-獅子鄉下草埔部落-PT-HTP-AP4"},{"lng":120.80279,"city":"屏東縣","name":"PT-HTP-AP5","nearby":"","lat":22.23441,"desc":"4-獅子鄉下草埔部落-PT-HTP-AP5"},{"lng":120.80283,"city":"屏東縣","name":"PT-HTP-AP6","nearby":"","lat":22.234833,"desc":"4-獅子鄉下草埔部落-PT-HTP-AP6"},{"lng":120.627785,"city":"屏東縣","name":"PT-KC-AP1","nearby":"","lat":22.427155,"desc":"4-春日鄉歸崇部落-PT-KC-AP1"},{"lng":120.62857,"city":"屏東縣","name":"PT-KC-AP2","nearby":"","lat":22.427416,"desc":"4-春日鄉歸崇部落-PT-KC-AP2"},{"lng":120.62893,"city":"屏東縣","name":"PT-KC-AP3","nearby":"","lat":22.428389,"desc":"4-春日鄉歸崇部落-PT-KC-AP3"},{"lng":120.62995,"city":"屏東縣","name":"PT-KC-AP4","nearby":"","lat":22.427893,"desc":"4-春日鄉歸崇部落-PT-KC-AP4"},{"lng":120.63067,"city":"屏東縣","name":"PT-KC-AP5","nearby":"","lat":22.428497,"desc":"4-春日鄉歸崇部落-PT-KC-AP5"},{"lng":120.631065,"city":"屏東縣","name":"PT-KC-AP6","nearby":"","lat":22.42829,"desc":"4-春日鄉歸崇部落-PT-KC-AP6"},{"lng":120.626495,"city":"屏東縣","name":"PT-KH-AP1","nearby":"","lat":22.360268,"desc":"4-春日鄉古華部落-PT-KH-AP1"},{"lng":120.62644,"city":"屏東縣","name":"PT-KH-AP2","nearby":"","lat":22.35955,"desc":"4-春日鄉古華部落-PT-KH-AP2"},{"lng":120.62762,"city":"屏東縣","name":"PT-KH-AP3","nearby":"","lat":22.359388,"desc":"4-春日鄉古華部落-PT-KH-AP3"},{"lng":120.62764,"city":"屏東縣","name":"PT-KH-AP4","nearby":"","lat":22.3594,"desc":"4-春日鄉古華部落-PT-KH-AP4"},{"lng":120.628876,"city":"屏東縣","name":"PT-KH-AP5","nearby":"","lat":22.35903,"desc":"4-春日鄉古華部落-PT-KH-AP5"},{"lng":120.628624,"city":"屏東縣","name":"PT-KH-AP6","nearby":"","lat":22.359577,"desc":"4-春日鄉古華部落-PT-KH-AP6"},{"lng":120.64808,"city":"屏東縣","name":"PT-KS-AP1","nearby":"","lat":22.768324,"desc":"4-三地門鄉口社部落-PT-KS-AP1"},{"lng":120.64871,"city":"屏東縣","name":"PT-KS-AP2","nearby":"","lat":22.76839,"desc":"4-三地門鄉口社部落-PT-KS-AP2"},{"lng":120.64769,"city":"屏東縣","name":"PT-KS-AP3","nearby":"","lat":22.769623,"desc":"4-三地門鄉口社部落-PT-KS-AP3"},{"lng":120.64715,"city":"屏東縣","name":"PT-KS-AP4","nearby":"","lat":22.768723,"desc":"4-三地門鄉口社部落-PT-KS-AP4"},{"lng":120.64566,"city":"屏東縣","name":"PT-KS-AP5","nearby":"","lat":22.769297,"desc":"4-三地門鄉口社部落-PT-KS-AP5"},{"lng":120.64467,"city":"屏東縣","name":"PT-KS-AP6","nearby":"","lat":22.770018,"desc":"4-三地門鄉口社部落-PT-KS-AP6"},{"lng":120.63833,"city":"屏東縣","name":"PT-SC-AP1","nearby":"","lat":22.74341,"desc":"4-三地門鄉賽嘉部落-PT-SC-AP1"},{"lng":120.63817,"city":"屏東縣","name":"PT-SC-AP2","nearby":"","lat":22.743767,"desc":"4-三地門鄉賽嘉部落-PT-SC-AP2"},{"lng":120.63637,"city":"屏東縣","name":"PT-SC-AP3","nearby":"","lat":22.744043,"desc":"4-三地門鄉賽嘉部落-PT-SC-AP3"},{"lng":120.636795,"city":"屏東縣","name":"PT-SC-AP4","nearby":"","lat":22.74415,"desc":"4-三地門鄉賽嘉部落-PT-SC-AP4"},{"lng":120.637314,"city":"屏東縣","name":"PT-SC-AP5","nearby":"","lat":22.744467,"desc":"4-三地門鄉賽嘉部落-PT-SC-AP5"},{"lng":120.63776,"city":"屏東縣","name":"PT-SC-AP6","nearby":"","lat":22.744446,"desc":"4-三地門鄉賽嘉部落-PT-SC-AP6"},{"lng":120.608635,"city":"屏東縣","name":"PT-SH-AP1","nearby":"","lat":22.703028,"desc":"4-瑪家鄉三和部落-PT-SH-AP1"},{"lng":120.609406,"city":"屏東縣","name":"PT-SH-AP2","nearby":"","lat":22.703508,"desc":"4-瑪家鄉三和部落-PT-SH-AP2"},{"lng":120.60819,"city":"屏東縣","name":"PT-SH-AP3","nearby":"","lat":22.703632,"desc":"4-瑪家鄉三和部落-PT-SH-AP3"},{"lng":120.607765,"city":"屏東縣","name":"PT-SH-AP4","nearby":"","lat":22.703571,"desc":"4-瑪家鄉三和部落-PT-SH-AP4"},{"lng":120.606636,"city":"屏東縣","name":"PT-SH-AP5","nearby":"","lat":22.703428,"desc":"4-瑪家鄉三和部落-PT-SH-AP5"},{"lng":120.60649,"city":"屏東縣","name":"PT-SH-AP6","nearby":"","lat":22.703007,"desc":"4-瑪家鄉三和部落-PT-SH-AP6"},{"lng":120.72765,"city":"屏東縣","name":"PT-SS-AP1","nearby":"","lat":22.74952,"desc":"4-霧臺鄉神山部落-PT-SS-AP1"},{"lng":120.72859,"city":"屏東縣","name":"PT-SS-AP2","nearby":"","lat":22.749456,"desc":"4-霧臺鄉神山部落-PT-SS-AP2"},{"lng":120.729645,"city":"屏東縣","name":"PT-SS-AP3","nearby":"","lat":22.75025,"desc":"4-霧臺鄉神山部落-PT-SS-AP3"},{"lng":120.72911,"city":"屏東縣","name":"PT-SS-AP4","nearby":"","lat":22.750338,"desc":"4-霧臺鄉神山部落-PT-SS-AP4"},{"lng":120.727455,"city":"屏東縣","name":"PT-SS-AP5","nearby":"","lat":22.751085,"desc":"4-霧臺鄉神山部落-PT-SS-AP5"},{"lng":120.726685,"city":"屏東縣","name":"PT-SS-AP6","nearby":"","lat":22.751047,"desc":"4-霧臺鄉神山部落-PT-SS-AP6"},{"lng":120.72882,"city":"屏東縣","name":"PT-SS-AP7","nearby":"","lat":22.749441,"desc":"4-霧臺鄉神山部落-PT-SS-AP7"}]},{"name":"新北市","points":[{"lng":121.54889,"city":"新北市","name":"忠治(桶壁)-AP1","nearby":"","lat":24.88353,"desc":"5-烏來區-忠治(桶壁)部落-忠治(桶壁)-AP1"},{"lng":121.54821,"city":"新北市","name":"忠治(桶壁)-AP2","nearby":"","lat":24.8835,"desc":"5-烏來區-忠治(桶壁)部落-忠治(桶壁)-AP2"},{"lng":121.54867,"city":"新北市","name":"忠治(桶壁)-AP3","nearby":"1","lat":24.88392,"desc":"5-烏來區-忠治(桶壁)部落-忠治(桶壁)-AP3"},{"lng":121.44348,"city":"新北市","name":"原民會16樓AP","nearby":"","lat":25.05688,"desc":"99-新莊區-原民會辦公室-原民會16樓AP"},{"lng":121.5472,"city":"新北市","name":"烏來-AP2","nearby":"","lat":24.86368,"desc":"3-烏來區-烏來部落-烏來-AP2"},{"lng":121.54793,"city":"新北市","name":"烏來-AP3","nearby":"","lat":24.86349,"desc":"3-烏來區-烏來部落-烏來-AP3"},{"lng":121.54836,"city":"新北市","name":"烏來-AP4","nearby":"1","lat":24.86336,"desc":"3-烏來區-烏來部落-烏來-AP4"},{"lng":121.54844,"city":"新北市","name":"烏來-AP1","nearby":"","lat":24.86464,"desc":"3-烏來區-烏來部落-烏來-AP1"},{"lng":121.54842,"city":"新北市","name":"烏來-AP9","nearby":"","lat":24.86403,"desc":"3-烏來區-烏來部落-烏來-AP9"},{"lng":121.55147,"city":"新北市","name":"烏來-AP7","nearby":"","lat":24.86279,"desc":"3-烏來區-烏來部落-烏來-AP7"},{"lng":121.55158,"city":"新北市","name":"烏來-AP8","nearby":"","lat":24.86417,"desc":"3-烏來區-烏來部落-烏來-AP8"},{"lng":121.55152,"city":"新北市","name":"烏來-AP5","nearby":"","lat":24.86117,"desc":"3-烏來區-烏來部落-烏來-AP5"},{"lng":121.55089,"city":"新北市","name":"烏來-AP6","nearby":"","lat":24.86183,"desc":"3-烏來區-烏來部落-烏來-AP6"},{"lng":121.44348,"city":"新北市","name":"原民會14樓AP","nearby":"","lat":25.05688,"desc":"99-新莊區-原民會辦公室-原民會14樓AP"},{"lng":121.44348,"city":"新北市","name":"原民會14樓AP","nearby":"","lat":25.05688,"desc":"99-新莊區-原民會辦公室-原民會14樓AP"},{"lng":121.44348,"city":"新北市","name":"原民會14樓AP","nearby":"","lat":25.05688,"desc":"99-新莊區-原民會辦公室-原民會14樓AP"},{"lng":121.44348,"city":"新北市","name":"原民會14樓AP","nearby":"","lat":25.05688,"desc":"99-新莊區-原民會辦公室-原民會14樓AP"},{"lng":121.44348,"city":"新北市","name":"原民會14樓AP","nearby":"","lat":25.05688,"desc":"99-新莊區-原民會辦公室-原民會14樓AP"},{"lng":121.44348,"city":"新北市","name":"原民會14樓AP","nearby":"","lat":25.05688,"desc":"99-新莊區-原民會辦公室-原民會14樓AP"},{"lng":121.44348,"city":"新北市","name":"原民會14樓AP","nearby":"","lat":25.05688,"desc":"99-新莊區-原民會辦公室-原民會14樓AP"},{"lng":121.44348,"city":"新北市","name":"原民會14樓AP","nearby":"","lat":25.05688,"desc":"99-新莊區-原民會辦公室-原民會14樓AP"},{"lng":121.44348,"city":"新北市","name":"原民會14樓AP","nearby":"","lat":25.05688,"desc":"99-新莊區-原民會辦公室-原民會14樓AP"},{"lng":121.44348,"city":"新北市","name":"原民會15樓AP","nearby":"","lat":25.05688,"desc":"99-新莊區-原民會辦公室-原民會15樓AP"},{"lng":121.44348,"city":"新北市","name":"原民會15樓AP","nearby":"","lat":25.05688,"desc":"99-新莊區-原民會辦公室-原民會15樓AP"},{"lng":121.44348,"city":"新北市","name":"原民會15樓AP","nearby":"","lat":25.05688,"desc":"99-新莊區-原民會辦公室-原民會15樓AP"},{"lng":121.44348,"city":"新北市","name":"原民會15樓AP","nearby":"","lat":25.05688,"desc":"99-新莊區-原民會辦公室-原民會15樓AP"},{"lng":121.44348,"city":"新北市","name":"原民會15樓AP","nearby":"","lat":25.05688,"desc":"99-新莊區-原民會辦公室-原民會15樓AP"},{"lng":121.44348,"city":"新北市","name":"原民會15樓AP","nearby":"","lat":25.05688,"desc":"99-新莊區-原民會辦公室-原民會15樓AP"},{"lng":121.44348,"city":"新北市","name":"原民會15樓AP","nearby":"","lat":25.05688,"desc":"99-新莊區-原民會辦公室-原民會15樓AP"},{"lng":121.44348,"city":"新北市","name":"原民會15樓AP","nearby":"","lat":25.05688,"desc":"99-新莊區-原民會辦公室-原民會15樓AP"},{"lng":121.44348,"city":"新北市","name":"原民會16樓AP","nearby":"","lat":25.05688,"desc":"99-新莊區-原民會辦公室-原民會16樓AP"},{"lng":121.44348,"city":"新北市","name":"原民會16樓AP","nearby":"","lat":25.05688,"desc":"99-新莊區-原民會辦公室-原民會16樓AP"},{"lng":121.44348,"city":"新北市","name":"原民會16樓AP","nearby":"","lat":25.05688,"desc":"99-新莊區-原民會辦公室-原民會16樓AP"},{"lng":121.44348,"city":"新北市","name":"原民會16樓AP","nearby":"","lat":25.05688,"desc":"99-新莊區-原民會辦公室-原民會16樓AP"},{"lng":121.44348,"city":"新北市","name":"原民會16樓AP","nearby":"","lat":25.05688,"desc":"99-新莊區-原民會辦公室-原民會16樓AP"},{"lng":121.44348,"city":"新北市","name":"原民會16樓AP","nearby":"","lat":25.05688,"desc":"99-新莊區-原民會辦公室-原民會16樓AP"},{"lng":121.44348,"city":"新北市","name":"原民會16樓AP","nearby":"","lat":25.05688,"desc":"99-新莊區-原民會辦公室-原民會16樓AP"},{"lng":121.44348,"city":"新北市","name":"原民會16樓AP","nearby":"","lat":25.05688,"desc":"99-新莊區-原民會辦公室-原民會16樓AP"},{"lng":121.52579,"city":"新北市","name":"信賢-AP1","nearby":"1","lat":24.8355,"desc":"5-烏來區-信賢部落-信賢-AP1"},{"lng":121.52624,"city":"新北市","name":"信賢-AP2","nearby":"","lat":24.8368,"desc":"5-烏來區-信賢部落-信賢-AP2"},{"lng":121.5251,"city":"新北市","name":"信賢-AP3","nearby":"","lat":24.8352,"desc":"5-烏來區-信賢部落-信賢-AP3"},{"lng":121.52369,"city":"新北市","name":"信賢-AP4","nearby":"","lat":24.83551,"desc":"5-烏來區-信賢部落-信賢-AP4"},{"lng":121.502304,"city":"新北市","name":"NTC-FS-AP1","nearby":"","lat":24.777027,"desc":"4-烏來區-福山部落-NTC-FS-AP1"},{"lng":121.50226,"city":"新北市","name":"NTC-FS-AP2","nearby":"","lat":24.777723,"desc":"4-烏來區-福山部落-NTC-FS-AP2"},{"lng":121.50321,"city":"新北市","name":"NTC-FS-AP3","nearby":"","lat":24.780106,"desc":"4-烏來區-福山部落-NTC-FS-AP3"},{"lng":121.50304,"city":"新北市","name":"NTC-FS-AP4","nearby":"","lat":24.779621,"desc":"4-烏來區-福山部落-NTC-FS-AP4"},{"lng":121.50077,"city":"新北市","name":"NTC-FS-AP5","nearby":"","lat":24.775127,"desc":"4-烏來區-福山部落-NTC-FS-AP5"},{"lng":121.50266,"city":"新北市","name":"NTC-FS-AP6","nearby":"","lat":24.774542,"desc":"4-烏來區-福山部落-NTC-FS-AP6"}]},{"name":"新竹縣","points":[{"lng":121.2086,"city":"新竹縣","name":"梅達拜-AP1","nearby":"","lat":24.6773,"desc":"3-尖石鄉-梅達拜部落-梅達拜-AP1"},{"lng":121.20927,"city":"新竹縣","name":"梅達拜-AP2","nearby":"","lat":24.67807,"desc":"3-尖石鄉-梅達拜部落-梅達拜-AP2"},{"lng":121.20865,"city":"新竹縣","name":"梅達拜-AP3","nearby":"","lat":24.67874,"desc":"3-尖石鄉-梅達拜部落-梅達拜-AP3"},{"lng":121.20796,"city":"新竹縣","name":"梅達拜-AP4","nearby":"","lat":24.67827,"desc":"3-尖石鄉-梅達拜部落-梅達拜-AP4"},{"lng":121.20885,"city":"新竹縣","name":"梅達拜-AP5","nearby":"","lat":24.6795,"desc":"3-尖石鄉-梅達拜部落-梅達拜-AP5"},{"lng":121.11939,"city":"新竹縣","name":"五峰-AP1","nearby":"","lat":24.63209,"desc":"3-五峰鄉-五峰部落-五峰-AP1"},{"lng":121.11976,"city":"新竹縣","name":"五峰-AP2","nearby":"","lat":24.63146,"desc":"3-五峰鄉-五峰部落-五峰-AP2"},{"lng":121.12005,"city":"新竹縣","name":"五峰-AP6","nearby":"","lat":24.63238,"desc":"3-五峰鄉-五峰部落-五峰-AP6"},{"lng":121.11932,"city":"新竹縣","name":"五峰-AP3","nearby":"","lat":24.63041,"desc":"3-五峰鄉-五峰部落-五峰-AP3"},{"lng":121.11881,"city":"新竹縣","name":"五峰-AP4","nearby":"","lat":24.62968,"desc":"3-五峰鄉-五峰部落-五峰-AP4"},{"lng":121.1197,"city":"新竹縣","name":"五峰-AP5","nearby":"","lat":24.62918,"desc":"3-五峰鄉-五峰部落-五峰-AP5"},{"lng":121.15153,"city":"新竹縣","name":"花園-AP1","nearby":"1","lat":24.64781,"desc":"5-五峰鄉-花園部落-花園-AP1"},{"lng":121.15171,"city":"新竹縣","name":"花園-AP2","nearby":"","lat":24.64711,"desc":"5-五峰鄉-花園部落-花園-AP2"},{"lng":121.15147,"city":"新竹縣","name":"花園-AP3","nearby":"","lat":24.64614,"desc":"5-五峰鄉-花園部落-花園-AP3"},{"lng":121.10834,"city":"新竹縣","name":"桃山-AP1","nearby":"","lat":24.59508,"desc":"5-五峰鄉-桃山部落-桃山-AP1"},{"lng":121.10838,"city":"新竹縣","name":"桃山-AP2","nearby":"1","lat":24.59665,"desc":"5-五峰鄉-桃山部落-桃山-AP2"},{"lng":121.10975,"city":"新竹縣","name":"桃山-AP3","nearby":"","lat":24.59923,"desc":"5-五峰鄉-桃山部落-桃山-AP3"},{"lng":121.20428,"city":"新竹縣","name":"梅阿尤達克-AP1","nearby":"1","lat":24.67318,"desc":"5-尖石鄉-梅阿尤達克部落-梅阿尤達克-AP1"},{"lng":121.20285,"city":"新竹縣","name":"梅阿尤達克-AP2","nearby":"","lat":24.67278,"desc":"5-尖石鄉-梅阿尤達克部落-梅阿尤達克-AP2"},{"lng":121.29621,"city":"新竹縣","name":"泰崗-AP1","nearby":"1","lat":24.61127,"desc":"5-尖石鄉-泰崗部落-泰崗-AP1"},{"lng":121.29507,"city":"新竹縣","name":"泰崗-AP4","nearby":"","lat":24.61141,"desc":"5-尖石鄉-泰崗部落-泰崗-AP4"},{"lng":121.29687,"city":"新竹縣","name":"泰崗-AP2","nearby":"","lat":24.61189,"desc":"5-尖石鄉-泰崗部落-泰崗-AP2"},{"lng":121.29585,"city":"新竹縣","name":"泰崗-AP3","nearby":"","lat":24.61258,"desc":"5-尖石鄉-泰崗部落-泰崗-AP3"},{"lng":121.30081,"city":"新竹縣","name":"馬里光-AP1","nearby":"1","lat":24.65991,"desc":"5-尖石鄉-馬里光部落-馬里光-AP1"},{"lng":121.29794,"city":"新竹縣","name":"馬里光-AP3","nearby":"","lat":24.65779,"desc":"5-尖石鄉-馬里光部落-馬里光-AP3"},{"lng":121.31605,"city":"新竹縣","name":"馬里光-AP2","nearby":"","lat":24.65353,"desc":"5-尖石鄉-馬里光部落-馬里光-AP2"},{"lng":121.31523,"city":"新竹縣","name":"馬里光-AP4","nearby":"","lat":24.65371,"desc":"5-尖石鄉-馬里光部落-馬里光-AP4"},{"lng":121.10597,"city":"新竹縣","name":"HC-CC-AP1","nearby":"","lat":24.574127,"desc":"4-五峰鄉清泉部落-HC-CC-AP1"},{"lng":121.10525,"city":"新竹縣","name":"HC-CC-AP2","nearby":"","lat":24.573574,"desc":"4-五峰鄉清泉部落-HC-CC-AP2"},{"lng":121.10526,"city":"新竹縣","name":"HC-CC-AP3","nearby":"","lat":24.574154,"desc":"4-五峰鄉清泉部落-HC-CC-AP3"},{"lng":121.104095,"city":"新竹縣","name":"HC-CC-AP4","nearby":"","lat":24.575878,"desc":"4-五峰鄉清泉部落-HC-CC-AP4"},{"lng":121.10364,"city":"新竹縣","name":"HC-CC-AP5","nearby":"","lat":24.577354,"desc":"4-五峰鄉清泉部落-HC-CC-AP5"},{"lng":121.105965,"city":"新竹縣","name":"HC-CC-AP6","nearby":"","lat":24.577341,"desc":"4-五峰鄉清泉部落-HC-CC-AP6"}]},{"name":"桃園市","points":[{"lng":121.36331,"city":"桃園市","name":"羅浮-AP4","nearby":"","lat":24.79524,"desc":"3-復興區-羅浮部落-羅浮-AP4"},{"lng":121.36429,"city":"桃園市","name":"羅浮-AP5","nearby":"","lat":24.79406,"desc":"3-復興區-羅浮部落-羅浮-AP5"},{"lng":121.36522,"city":"桃園市","name":"羅浮-AP1","nearby":"","lat":24.79919,"desc":"3-復興區-羅浮部落-羅浮-AP1"},{"lng":121.36394,"city":"桃園市","name":"羅浮-AP2","nearby":"","lat":24.79852,"desc":"3-復興區-羅浮部落-羅浮-AP2"},{"lng":121.36282,"city":"桃園市","name":"羅浮-AP3","nearby":"","lat":24.7976,"desc":"3-復興區-羅浮部落-羅浮-AP3"},{"lng":121.36666,"city":"桃園市","name":"羅浮-AP6","nearby":"","lat":24.79295,"desc":"3-復興區-羅浮部落-羅浮-AP6"},{"lng":121.30705,"city":"桃園市","name":"竹頭角-AP1","nearby":"","lat":24.80004,"desc":"5-復興區-竹頭角部落-竹頭角-AP1"},{"lng":121.30786,"city":"桃園市","name":"竹頭角-AP2","nearby":"","lat":24.80027,"desc":"5-復興區-竹頭角部落-竹頭角-AP2"},{"lng":121.30643,"city":"桃園市","name":"竹頭角-AP3","nearby":"1","lat":24.80003,"desc":"5-復興區-竹頭角部落-竹頭角-AP3"},{"lng":121.30555,"city":"桃園市","name":"竹頭角-AP4","nearby":"","lat":24.80051,"desc":"5-復興區-竹頭角部落-竹頭角-AP4"},{"lng":121.3342,"city":"桃園市","name":"中奎輝-AP1","nearby":"1","lat":24.79713,"desc":"5-復興區-中奎輝部落-中奎輝-AP1"},{"lng":121.33453,"city":"桃園市","name":"中奎輝-AP2","nearby":"","lat":24.79616,"desc":"5-復興區-中奎輝部落-中奎輝-AP2"},{"lng":121.33524,"city":"桃園市","name":"中奎輝-AP3","nearby":"","lat":24.79619,"desc":"5-復興區-中奎輝部落-中奎輝-AP3"},{"lng":121.33305,"city":"桃園市","name":"中奎輝-AP4","nearby":"","lat":24.79725,"desc":"5-復興區-中奎輝部落-中奎輝-AP4"},{"lng":121.33191,"city":"桃園市","name":"中奎輝-AP5","nearby":"","lat":24.7975,"desc":"5-復興區-中奎輝部落-中奎輝-AP5"},{"lng":121.35421,"city":"桃園市","name":"比亞外-AP1","nearby":"1","lat":24.72643,"desc":"5-復興區-比亞外部落-比亞外-AP1"},{"lng":121.35405,"city":"桃園市","name":"比亞外-AP2","nearby":"","lat":24.72738,"desc":"5-復興區-比亞外部落-比亞外-AP2"},{"lng":121.33419,"city":"桃園市","name":"TY-CKP-AP1","nearby":"","lat":24.835066,"desc":"4-復興區基國派部落-TY-CKP-AP1"},{"lng":121.33427,"city":"桃園市","name":"TY-CKP-AP2","nearby":"","lat":24.83439,"desc":"4-復興區基國派部落-TY-CKP-AP2"},{"lng":121.348045,"city":"桃園市","name":"TY-CKP-AP3","nearby":"","lat":24.841248,"desc":"4-復興區基國派部落-TY-CKP-AP3"},{"lng":121.348015,"city":"桃園市","name":"TY-CKP-AP4","nearby":"","lat":24.841206,"desc":"4-復興區基國派部落-TY-CKP-AP4"},{"lng":121.349106,"city":"桃園市","name":"TY-CKP-AP5","nearby":"","lat":24.838549,"desc":"4-復興區基國派部落-TY-CKP-AP5"},{"lng":121.39765,"city":"桃園市","name":"TY-HGH-AP1","nearby":"","lat":24.66472,"desc":"示範計畫-復興區後光華部落-TY-HGH-AP1"},{"lng":121.39693,"city":"桃園市","name":"TY-HGH-AP2","nearby":"","lat":24.66394,"desc":"示範計畫-復興區後光華部落-TY-HGH-AP2"},{"lng":121.39819,"city":"桃園市","name":"TY-HGH-AP3","nearby":"","lat":24.66486,"desc":"示範計畫-復興區後光華部落-TY-HGH-AP3"},{"lng":121.398285,"city":"桃園市","name":"TY-HGH-AP4","nearby":"","lat":24.66523,"desc":"示範計畫-復興區後光華部落-TY-HGH-AP4"},{"lng":121.39937,"city":"桃園市","name":"TY-HGW-AP1","nearby":"","lat":24.65514,"desc":"示範計畫-復興區哈嘎灣部落-TY-HGW-AP1"},{"lng":121.39847,"city":"桃園市","name":"TY-HGW-AP2","nearby":"","lat":24.65385,"desc":"示範計畫-復興區哈嘎灣部落-TY-HGW-AP2"},{"lng":121.39966,"city":"桃園市","name":"TY-HGW-AP3","nearby":"","lat":24.6552,"desc":"示範計畫-復興區哈嘎灣部落-TY-HGW-AP3"},{"lng":121.40363,"city":"桃園市","name":"TY-KL-AP1","nearby":"","lat":24.69195,"desc":"示範計畫-復興區卡拉部落-TY-KL-AP1"},{"lng":121.40381,"city":"桃園市","name":"TY-KL-AP2","nearby":"","lat":24.69162,"desc":"示範計畫-復興區卡拉部落-TY-KL-AP2"},{"lng":121.40369,"city":"桃園市","name":"TY-KL-AP3","nearby":"","lat":24.6913,"desc":"示範計畫-復興區卡拉部落-TY-KL-AP3"},{"lng":121.39533,"city":"桃園市","name":"TY-SBL-AP1","nearby":"","lat":24.685,"desc":"示範計畫-復興區上巴陵部落-TY-SBL-AP1"},{"lng":121.3987,"city":"桃園市","name":"TY-SBL-AP2","nearby":"","lat":24.68592,"desc":"示範計畫-復興區上巴陵部落-TY-SBL-AP2"},{"lng":121.39972,"city":"桃園市","name":"TY-SBL-AP3","nearby":"","lat":24.68635,"desc":"示範計畫-復興區上巴陵部落-TY-SBL-AP3"},{"lng":121.3557,"city":"桃園市","name":"TY-SLZ-AP1","nearby":"","lat":24.672272,"desc":"示範計畫-復興區砂崙子部落-TY-SLZ-AP1"},{"lng":121.35508,"city":"桃園市","name":"TY-SLZ-AP2","nearby":"","lat":24.670872,"desc":"示範計畫-復興區砂崙子部落-TY-SLZ-AP2"},{"lng":121.35429,"city":"桃園市","name":"TY-SLZ-AP3","nearby":"","lat":24.670897,"desc":"示範計畫-復興區砂崙子部落-TY-SLZ-AP3"},{"lng":121.35402,"city":"桃園市","name":"TY-SLZ-AP4","nearby":"","lat":24.670843,"desc":"示範計畫-復興區砂崙子部落-TY-SLZ-AP4"},{"lng":121.35307,"city":"桃園市","name":"TY-SLZ-AP5","nearby":"","lat":24.670137,"desc":"示範計畫-復興區砂崙子部落-TY-SLZ-AP5"},{"lng":121.36659,"city":"桃園市","name":"TY-WDNG-AP1","nearby":"","lat":24.67302,"desc":"示範計畫-復興區武道能敢部落-TY-WDNG-AP1"},{"lng":121.3669,"city":"桃園市","name":"TY-WDNG-AP2","nearby":"","lat":24.67271,"desc":"示範計畫-復興區武道能敢部落-TY-WDNG-AP2"},{"lng":121.36698,"city":"桃園市","name":"TY-WDNG-AP3","nearby":"","lat":24.67244,"desc":"示範計畫-復興區武道能敢部落-TY-WDNG-AP3"},{"lng":121.36673,"city":"桃園市","name":"TY-WDNG-AP4","nearby":"","lat":24.673878,"desc":"示範計畫-復興區武道能敢部落-TY-WDNG-AP4"},{"lng":121.367294,"city":"桃園市","name":"TY-WDNG-AP5","nearby":"","lat":24.674486,"desc":"示範計畫-復興區武道能敢部落-TY-WDNG-AP5"},{"lng":121.36643,"city":"桃園市","name":"TY-WDNG-AP6","nearby":"","lat":24.674528,"desc":"示範計畫-復興區武道能敢部落-TY-WDNG-AP6"},{"lng":121.36603,"city":"桃園市","name":"TY-XWN-AP1","nearby":"","lat":24.74134,"desc":"示範計畫-復興區雪霧鬧部落-TY-XWN-AP1"},{"lng":121.37341,"city":"桃園市","name":"TY-YH-AP1","nearby":"","lat":24.67058,"desc":"示範計畫-復興區爺亨部落-TY-YH-AP1"},{"lng":121.3741,"city":"桃園市","name":"TY-YH-AP2","nearby":"","lat":24.67076,"desc":"示範計畫-復興區爺亨部落-TY-YH-AP2"}]},{"name":"臺中市","points":[{"lng":120.95203,"city":"臺中市","name":"裡冷-AP1","nearby":"","lat":24.16602,"desc":"3-和平區-裡冷部落-裡冷-AP1"},{"lng":120.9515,"city":"臺中市","name":"裡冷-AP2","nearby":"","lat":24.16507,"desc":"3-和平區-裡冷部落-裡冷-AP2"},{"lng":120.95285,"city":"臺中市","name":"裡冷-AP3","nearby":"1","lat":24.16457,"desc":"3-和平區-裡冷部落-裡冷-AP3"},{"lng":120.94794,"city":"臺中市","name":"裡冷-AP5","nearby":"","lat":24.16538,"desc":"3-和平區-裡冷部落-裡冷-AP5"},{"lng":120.95466,"city":"臺中市","name":"裡冷-AP4","nearby":"","lat":24.16651,"desc":"3-和平區-裡冷部落-裡冷-AP4"},{"lng":120.9801,"city":"臺中市","name":"松鶴-AP1","nearby":"","lat":24.17801,"desc":"3-和平區-松鶴部落-松鶴-AP1"},{"lng":120.98071,"city":"臺中市","name":"松鶴-AP2","nearby":"","lat":24.17715,"desc":"3-和平區-松鶴部落-松鶴-AP2"},{"lng":120.9795,"city":"臺中市","name":"松鶴-AP3","nearby":"","lat":24.17658,"desc":"3-和平區-松鶴部落-松鶴-AP3"},{"lng":120.97792,"city":"臺中市","name":"松鶴-AP6","nearby":"","lat":24.17564,"desc":"3-和平區-松鶴部落-松鶴-AP6"},{"lng":120.97814,"city":"臺中市","name":"松鶴-AP5","nearby":"","lat":24.17449,"desc":"3-和平區-松鶴部落-松鶴-AP5"},{"lng":120.97694,"city":"臺中市","name":"松鶴-AP4","nearby":"","lat":24.17398,"desc":"3-和平區-松鶴部落-松鶴-AP4"},{"lng":120.90248,"city":"臺中市","name":"南勢-AP10","nearby":"","lat":24.17023,"desc":"3-和平區-南勢部落-南勢-AP10"},{"lng":120.90199,"city":"臺中市","name":"南勢-AP11","nearby":"","lat":24.16932,"desc":"3-和平區-南勢部落-南勢-AP11"},{"lng":120.90098,"city":"臺中市","name":"南勢-AP12","nearby":"","lat":24.16988,"desc":"3-和平區-南勢部落-南勢-AP12"},{"lng":120.90088,"city":"臺中市","name":"南勢-AP13","nearby":"","lat":24.16939,"desc":"3-和平區-南勢部落-南勢-AP13"},{"lng":120.90097,"city":"臺中市","name":"南勢-AP14","nearby":"","lat":24.16872,"desc":"3-和平區-南勢部落-南勢-AP14"},{"lng":120.90212,"city":"臺中市","name":"南勢-AP9","nearby":"","lat":24.17235,"desc":"3-和平區-南勢部落-南勢-AP9"},{"lng":121.26592,"city":"臺中市","name":"松茂-AP1","nearby":"","lat":24.28103,"desc":"5-和平區-松茂部落-松茂-AP1"},{"lng":121.26676,"city":"臺中市","name":"松茂-AP2","nearby":"1","lat":24.28381,"desc":"5-和平區-松茂部落-松茂-AP2"},{"lng":121.26607,"city":"臺中市","name":"松茂-AP3","nearby":"","lat":24.2847,"desc":"5-和平區-松茂部落-松茂-AP3"}]},{"name":"臺中縣","points":[{"lng":120.90891,"city":"臺中縣","name":"TC-SC-AP1","nearby":"","lat":24.290407,"desc":"4-和平區雙崎部落-TC-SC-AP1"},{"lng":120.90838,"city":"臺中縣","name":"TC-SC-AP2","nearby":"","lat":24.290775,"desc":"4-和平區雙崎部落-TC-SC-AP2"},{"lng":120.90506,"city":"臺中縣","name":"TC-SC-AP3","nearby":"","lat":24.288218,"desc":"4-和平區雙崎部落-TC-SC-AP3"},{"lng":120.90933,"city":"臺中縣","name":"TC-SC-AP4","nearby":"","lat":24.292253,"desc":"4-和平區雙崎部落-TC-SC-AP4"},{"lng":120.90979,"city":"臺中縣","name":"TC-SC-AP5","nearby":"","lat":24.291332,"desc":"4-和平區雙崎部落-TC-SC-AP5"}]},{"name":"臺東縣","points":[{"lng":120.96347,"city":"臺東縣","name":"金崙-AP1","nearby":"1","lat":22.53267,"desc":"5-太麻里鄉-金崙部落-金崙-AP1"},{"lng":120.96403,"city":"臺東縣","name":"金崙-AP2","nearby":"","lat":22.53363,"desc":"5-太麻里鄉-金崙部落-金崙-AP2"},{"lng":120.96532,"city":"臺東縣","name":"金崙-AP3","nearby":"","lat":22.5334,"desc":"5-太麻里鄉-金崙部落-金崙-AP3"},{"lng":120.9648,"city":"臺東縣","name":"金崙-AP4","nearby":"","lat":22.53271,"desc":"5-太麻里鄉-金崙部落-金崙-AP4"},{"lng":120.96651,"city":"臺東縣","name":"金崙-AP5","nearby":"","lat":22.53309,"desc":"5-太麻里鄉-金崙部落-金崙-AP5"},{"lng":120.96483,"city":"臺東縣","name":"金崙-AP6","nearby":"","lat":22.53149,"desc":"5-太麻里鄉-金崙部落-金崙-AP6"},{"lng":120.99095,"city":"臺東縣","name":"沙薩拉克-AP1","nearby":"","lat":22.57658,"desc":"5-太麻里鄉-沙薩拉克部落-沙薩拉克-AP1"},{"lng":120.99046,"city":"臺東縣","name":"沙薩拉克-AP2","nearby":"","lat":22.57563,"desc":"5-太麻里鄉-沙薩拉克部落-沙薩拉克-AP2"},{"lng":121.08482,"city":"臺東縣","name":"巴喜告-AP1","nearby":"1","lat":22.90236,"desc":"5-延平鄉-巴喜告部落-巴喜告-AP1"},{"lng":121.08411,"city":"臺東縣","name":"巴喜告-AP2","nearby":"","lat":22.90311,"desc":"5-延平鄉-巴喜告部落-巴喜告-AP2"},{"lng":121.08322,"city":"臺東縣","name":"巴喜告-AP3","nearby":"","lat":22.90303,"desc":"5-延平鄉-巴喜告部落-巴喜告-AP3"},{"lng":121.08217,"city":"臺東縣","name":"巴喜告-AP4","nearby":"","lat":22.90275,"desc":"5-延平鄉-巴喜告部落-巴喜告-AP4"},{"lng":121.08223,"city":"臺東縣","name":"巴喜告-AP5","nearby":"","lat":22.90352,"desc":"5-延平鄉-巴喜告部落-巴喜告-AP5"},{"lng":121.08236,"city":"臺東縣","name":"巴喜告-AP6","nearby":"","lat":22.90412,"desc":"5-延平鄉-巴喜告部落-巴喜告-AP6"},{"lng":121.08323,"city":"臺東縣","name":"巴喜告-AP7","nearby":"","lat":22.90485,"desc":"5-延平鄉-巴喜告部落-巴喜告-AP7"},{"lng":121.46434,"city":"臺東縣","name":"真柄-AP1","nearby":"","lat":23.34281,"desc":"5-長濱鄉-真柄部落-真柄-AP1"},{"lng":121.46358,"city":"臺東縣","name":"真柄-AP2","nearby":"","lat":23.34218,"desc":"5-長濱鄉-真柄部落-真柄-AP2"},{"lng":121.46285,"city":"臺東縣","name":"真柄-AP3","nearby":"1","lat":23.34163,"desc":"5-長濱鄉-真柄部落-真柄-AP3"},{"lng":121.46173,"city":"臺東縣","name":"真柄-AP4","nearby":"","lat":23.34159,"desc":"5-長濱鄉-真柄部落-真柄-AP4"},{"lng":121.46012,"city":"臺東縣","name":"真柄-AP5","nearby":"","lat":23.34171,"desc":"5-長濱鄉-真柄部落-真柄-AP5"},{"lng":121.56579,"city":"臺東縣","name":"野銀-AP1","nearby":"","lat":22.03898,"desc":"5-蘭嶼鄉-野銀部落-野銀-AP1"},{"lng":121.56633,"city":"臺東縣","name":"野銀-AP2","nearby":"","lat":22.03838,"desc":"5-蘭嶼鄉-野銀部落-野銀-AP2"},{"lng":121.5667,"city":"臺東縣","name":"野銀-AP3","nearby":"","lat":22.03916,"desc":"5-蘭嶼鄉-野銀部落-野銀-AP3"},{"lng":121.5681,"city":"臺東縣","name":"野銀-AP5","nearby":"","lat":22.0376,"desc":"5-蘭嶼鄉-野銀部落-野銀-AP5"},{"lng":121.56757,"city":"臺東縣","name":"野銀-AP6","nearby":"","lat":22.03687,"desc":"5-蘭嶼鄉-野銀部落-野銀-AP6"},{"lng":121.56932,"city":"臺東縣","name":"野銀-AP7","nearby":"","lat":22.03716,"desc":"5-蘭嶼鄉-野銀部落-野銀-AP7"},{"lng":121.56703,"city":"臺東縣","name":"野銀-AP4","nearby":"","lat":22.0381,"desc":"5-蘭嶼鄉-野銀部落-野銀-AP4"},{"lng":121.54417,"city":"臺東縣","name":"漁人-AP1","nearby":"","lat":22.02722,"desc":"5-蘭嶼鄉-漁人部落-漁人-AP1"},{"lng":121.54345,"city":"臺東縣","name":"漁人-AP2","nearby":"","lat":22.02722,"desc":"5-蘭嶼鄉-漁人部落-漁人-AP2"},{"lng":121.54684,"city":"臺東縣","name":"漁人-AP7","nearby":"","lat":22.02708,"desc":"5-蘭嶼鄉-漁人部落-漁人-AP7"},{"lng":121.54236,"city":"臺東縣","name":"漁人-AP3","nearby":"","lat":22.02715,"desc":"5-蘭嶼鄉-漁人部落-漁人-AP3"},{"lng":121.54208,"city":"臺東縣","name":"漁人-AP4","nearby":"","lat":22.02645,"desc":"5-蘭嶼鄉-漁人部落-漁人-AP4"},{"lng":121.53947,"city":"臺東縣","name":"漁人-AP5","nearby":"","lat":22.02534,"desc":"5-蘭嶼鄉-漁人部落-漁人-AP5"},{"lng":121.54061,"city":"臺東縣","name":"漁人-AP6","nearby":"","lat":22.02605,"desc":"5-蘭嶼鄉-漁人部落-漁人-AP6"},{"lng":121.55326,"city":"臺東縣","name":"紅頭-AP1","nearby":"","lat":22.02548,"desc":"5-蘭嶼鄉-紅頭部落-紅頭-AP1"},{"lng":121.55472,"city":"臺東縣","name":"紅頭-AP2","nearby":"","lat":22.02495,"desc":"5-蘭嶼鄉-紅頭部落-紅頭-AP2"},{"lng":121.55442,"city":"臺東縣","name":"紅頭-AP3","nearby":"","lat":22.02529,"desc":"5-蘭嶼鄉-紅頭部落-紅頭-AP3"},{"lng":121.55602,"city":"臺東縣","name":"紅頭-AP4","nearby":"","lat":22.02422,"desc":"5-蘭嶼鄉-紅頭部落-紅頭-AP4"},{"lng":121.55634,"city":"臺東縣","name":"紅頭-AP8","nearby":"","lat":22.0249,"desc":"5-蘭嶼鄉-紅頭部落-紅頭-AP8"},{"lng":121.56246,"city":"臺東縣","name":"紅頭-AP9","nearby":"","lat":22.0195,"desc":"5-蘭嶼鄉-紅頭部落-紅頭-AP9"},{"lng":121.55187,"city":"臺東縣","name":"紅頭-AP5","nearby":"","lat":22.02551,"desc":"5-蘭嶼鄉-紅頭部落-紅頭-AP5"},{"lng":121.55243,"city":"臺東縣","name":"紅頭-AP6","nearby":"","lat":22.02628,"desc":"5-蘭嶼鄉-紅頭部落-紅頭-AP6"},{"lng":121.55046,"city":"臺東縣","name":"紅頭-AP7","nearby":"","lat":22.02628,"desc":"5-蘭嶼鄉-紅頭部落-紅頭-AP7"},{"lng":121.5101,"city":"臺東縣","name":"開元港-AP1","nearby":"","lat":22.0554,"desc":"5-蘭嶼鄉-開元港部落-開元港-AP1"},{"lng":121.50887,"city":"臺東縣","name":"開元港-AP2","nearby":"","lat":22.05769,"desc":"5-蘭嶼鄉-開元港部落-開元港-AP2"},{"lng":121.5092,"city":"臺東縣","name":"開元港-AP3","nearby":"","lat":22.05932,"desc":"5-蘭嶼鄉-開元港部落-開元港-AP3"},{"lng":120.989,"city":"臺東縣","name":"拉勞蘭-AP3","nearby":"","lat":22.57568,"desc":"2-太麻里鄉-拉勞蘭部落-拉勞蘭-AP3"},{"lng":120.98804,"city":"臺東縣","name":"拉勞蘭-AP4","nearby":"","lat":22.57589,"desc":"2-太麻里鄉-拉勞蘭部落-拉勞蘭-AP4"},{"lng":120.98962,"city":"臺東縣","name":"拉勞蘭-AP5","nearby":"","lat":22.57471,"desc":"2-太麻里鄉-拉勞蘭部落-拉勞蘭-AP5"},{"lng":120.99002,"city":"臺東縣","name":"拉勞蘭-AP6","nearby":"","lat":22.57534,"desc":"2-太麻里鄉-拉勞蘭部落-拉勞蘭-AP6"},{"lng":120.98874,"city":"臺東縣","name":"拉勞蘭-AP1","nearby":"","lat":22.57609,"desc":"2-太麻里鄉-拉勞蘭部落-拉勞蘭-AP1"},{"lng":120.98879,"city":"臺東縣","name":"拉勞蘭-AP2","nearby":"","lat":22.57729,"desc":"2-太麻里鄉-拉勞蘭部落-拉勞蘭-AP2"},{"lng":121.04534,"city":"臺東縣","name":"荒野-AP1","nearby":"","lat":22.69225,"desc":"2-太麻里鄉-荒野部落-荒野-AP1"},{"lng":121.04488,"city":"臺東縣","name":"荒野-AP2","nearby":"","lat":22.6932,"desc":"2-太麻里鄉-荒野部落-荒野-AP2"},{"lng":121.04411,"city":"臺東縣","name":"荒野-AP3","nearby":"","lat":22.69313,"desc":"2-太麻里鄉-荒野部落-荒野-AP3"},{"lng":121.04362,"city":"臺東縣","name":"荒野-AP4","nearby":"","lat":22.69245,"desc":"2-太麻里鄉-荒野部落-荒野-AP4"},{"lng":121.09147,"city":"臺東縣","name":"初鹿-AP1","nearby":"","lat":22.85626,"desc":"2-卑南鄉-初鹿部落-初鹿-AP1"},{"lng":121.09047,"city":"臺東縣","name":"初鹿-AP2","nearby":"","lat":22.85684,"desc":"2-卑南鄉-初鹿部落-初鹿-AP2"},{"lng":121.09005,"city":"臺東縣","name":"初鹿-AP4","nearby":"","lat":22.85817,"desc":"2-卑南鄉-初鹿部落-初鹿-AP4"},{"lng":121.08921,"city":"臺東縣","name":"初鹿-AP5","nearby":"","lat":22.85854,"desc":"2-卑南鄉-初鹿部落-初鹿-AP5"},{"lng":121.09093,"city":"臺東縣","name":"初鹿-AP3","nearby":"","lat":22.85779,"desc":"2-卑南鄉-初鹿部落-初鹿-AP3"},{"lng":121.0915,"city":"臺東縣","name":"初鹿-AP6","nearby":"","lat":22.8591,"desc":"2-卑南鄉-初鹿部落-初鹿-AP6"},{"lng":121.0924,"city":"臺東縣","name":"初鹿-AP7","nearby":"","lat":22.8604,"desc":"2-卑南鄉-初鹿部落-初鹿-AP7"},{"lng":121.09276,"city":"臺東縣","name":"初鹿-AP8","nearby":"","lat":22.86214,"desc":"2-卑南鄉-初鹿部落-初鹿-AP8"},{"lng":121.1176,"city":"臺東縣","name":"布谷拉夫-AP1","nearby":"","lat":22.9699,"desc":"2-延平鄉-布谷拉夫部落-布谷拉夫-AP1"},{"lng":121.11646,"city":"臺東縣","name":"布谷拉夫-AP2","nearby":"","lat":22.96858,"desc":"2-延平鄉-布谷拉夫部落-布谷拉夫-AP2"},{"lng":121.11523,"city":"臺東縣","name":"布谷拉夫-AP3","nearby":"","lat":22.96815,"desc":"2-延平鄉-布谷拉夫部落-布谷拉夫-AP3"},{"lng":121.115,"city":"臺東縣","name":"布谷拉夫-AP4","nearby":"","lat":22.96715,"desc":"2-延平鄉-布谷拉夫部落-布谷拉夫-AP4"},{"lng":121.11444,"city":"臺東縣","name":"布谷拉夫-AP5","nearby":"","lat":22.96771,"desc":"2-延平鄉-布谷拉夫部落-布谷拉夫-AP5"},{"lng":121.11411,"city":"臺東縣","name":"布谷拉夫-AP6","nearby":"","lat":22.96656,"desc":"2-延平鄉-布谷拉夫部落-布谷拉夫-AP6"},{"lng":121.11354,"city":"臺東縣","name":"布谷拉夫-AP7","nearby":"","lat":22.96692,"desc":"2-延平鄉-布谷拉夫部落-布谷拉夫-AP7"},{"lng":121.22731,"city":"臺東縣","name":"阿度蘭-AP3","nearby":"","lat":22.87445,"desc":"2-東河鄉-阿度蘭部落-阿度蘭-AP3"},{"lng":121.2273,"city":"臺東縣","name":"阿度蘭-AP7","nearby":"","lat":22.87348,"desc":"2-東河鄉-阿度蘭部落-阿度蘭-AP7"},{"lng":121.2279,"city":"臺東縣","name":"阿度蘭-AP1","nearby":"","lat":22.8762,"desc":"2-東河鄉-阿度蘭部落-阿度蘭-AP1"},{"lng":121.22692,"city":"臺東縣","name":"阿度蘭-AP2","nearby":"","lat":22.87544,"desc":"2-東河鄉-阿度蘭部落-阿度蘭-AP2"},{"lng":121.22667,"city":"臺東縣","name":"阿度蘭-AP8","nearby":"","lat":22.87479,"desc":"2-東河鄉-阿度蘭部落-阿度蘭-AP8"},{"lng":121.22561,"city":"臺東縣","name":"阿度蘭-AP4","nearby":"","lat":22.87362,"desc":"2-東河鄉-阿度蘭部落-阿度蘭-AP4"},{"lng":121.22576,"city":"臺東縣","name":"阿度蘭-AP6","nearby":"","lat":22.87471,"desc":"2-東河鄉-阿度蘭部落-阿度蘭-AP6"},{"lng":121.22671,"city":"臺東縣","name":"阿度蘭-AP5","nearby":"","lat":22.87245,"desc":"2-東河鄉-阿度蘭部落-阿度蘭-AP5"},{"lng":121.2256,"city":"臺東縣","name":"阿度蘭-AP9","nearby":"","lat":22.87289,"desc":"2-東河鄉-阿度蘭部落-阿度蘭-AP9"},{"lng":121.22654,"city":"臺東縣","name":"阿度蘭-AP10","nearby":"","lat":22.87371,"desc":"2-東河鄉-阿度蘭部落-阿度蘭-AP10"},{"lng":121.28596,"city":"臺東縣","name":"阿拉巴灣-AP1","nearby":"","lat":22.9982,"desc":"2-東河鄉-阿拉巴灣部落-阿拉巴灣-AP1"},{"lng":121.2862,"city":"臺東縣","name":"阿拉巴灣-AP6","nearby":"","lat":22.9986,"desc":"2-東河鄉-阿拉巴灣部落-阿拉巴灣-AP6"},{"lng":121.2867,"city":"臺東縣","name":"阿拉巴灣-AP2","nearby":"","lat":22.9975,"desc":"2-東河鄉-阿拉巴灣部落-阿拉巴灣-AP2"},{"lng":121.28718,"city":"臺東縣","name":"阿拉巴灣-AP5","nearby":"","lat":22.99897,"desc":"2-東河鄉-阿拉巴灣部落-阿拉巴灣-AP5"},{"lng":121.28708,"city":"臺東縣","name":"阿拉巴灣-AP7","nearby":"","lat":22.99787,"desc":"2-東河鄉-阿拉巴灣部落-阿拉巴灣-AP7"},{"lng":121.28769,"city":"臺東縣","name":"阿拉巴灣-AP3","nearby":"","lat":22.997,"desc":"2-東河鄉-阿拉巴灣部落-阿拉巴灣-AP3"},{"lng":121.28802,"city":"臺東縣","name":"阿拉巴灣-AP4","nearby":"","lat":22.99741,"desc":"2-東河鄉-阿拉巴灣部落-阿拉巴灣-AP4"},{"lng":121.28893,"city":"臺東縣","name":"阿拉巴灣-AP8","nearby":"","lat":22.99736,"desc":"2-東河鄉-阿拉巴灣部落-阿拉巴灣-AP8"},{"lng":121.14781,"city":"臺東縣","name":"崁頂-AP1","nearby":"","lat":23.04558,"desc":"2-海端鄉-崁頂部落-崁頂-AP1"},{"lng":121.14617,"city":"臺東縣","name":"崁頂-AP2","nearby":"","lat":23.04551,"desc":"2-海端鄉-崁頂部落-崁頂-AP2"},{"lng":121.14487,"city":"臺東縣","name":"崁頂-AP3","nearby":"","lat":23.04538,"desc":"2-海端鄉-崁頂部落-崁頂-AP3"},{"lng":121.14271,"city":"臺東縣","name":"崁頂-AP4","nearby":"","lat":23.04497,"desc":"2-海端鄉-崁頂部落-崁頂-AP4"},{"lng":121.14321,"city":"臺東縣","name":"崁頂-AP5","nearby":"","lat":23.04413,"desc":"2-海端鄉-崁頂部落-崁頂-AP5"},{"lng":121.14223,"city":"臺東縣","name":"崁頂-AP6","nearby":"","lat":23.04346,"desc":"2-海端鄉-崁頂部落-崁頂-AP6"},{"lng":121.02365,"city":"臺東縣","name":"利稻-AP2","nearby":"","lat":23.1865,"desc":"2-海端鄉-利稻部落-利稻-AP2"},{"lng":121.02251,"city":"臺東縣","name":"利稻-AP3","nearby":"","lat":23.18684,"desc":"2-海端鄉-利稻部落-利稻-AP3"},{"lng":121.02171,"city":"臺東縣","name":"利稻-AP4","nearby":"","lat":23.18712,"desc":"2-海端鄉-利稻部落-利稻-AP4"},{"lng":121.02056,"city":"臺東縣","name":"利稻-AP5","nearby":"","lat":23.18754,"desc":"2-海端鄉-利稻部落-利稻-AP5"},{"lng":121.02529,"city":"臺東縣","name":"利稻-AP1","nearby":"","lat":23.18631,"desc":"2-海端鄉-利稻部落-利稻-AP1"},{"lng":121.12489,"city":"臺東縣","name":"新武-AP1","nearby":"","lat":23.13301,"desc":"2-海端鄉-新武部落-新武-AP1"},{"lng":121.12438,"city":"臺東縣","name":"新武-AP2","nearby":"","lat":23.13304,"desc":"2-海端鄉-新武部落-新武-AP2"},{"lng":121.12396,"city":"臺東縣","name":"新武-AP3","nearby":"","lat":23.13246,"desc":"2-海端鄉-新武部落-新武-AP3"},{"lng":121.0421,"city":"臺東縣","name":"霧鹿-AP1","nearby":"","lat":23.1685,"desc":"2-海端鄉-霧鹿部落-霧鹿-AP1"},{"lng":121.04292,"city":"臺東縣","name":"霧鹿-AP2","nearby":"","lat":23.16743,"desc":"2-海端鄉-霧鹿部落-霧鹿-AP2"},{"lng":121.04385,"city":"臺東縣","name":"霧鹿-AP3","nearby":"","lat":23.16634,"desc":"2-海端鄉-霧鹿部落-霧鹿-AP3"},{"lng":121.1305,"city":"臺東縣","name":"加和-AP1","nearby":"","lat":23.00092,"desc":"2-海端鄉-加和部落-加和-AP1"},{"lng":121.13024,"city":"臺東縣","name":"加和-AP2","nearby":"","lat":22.99957,"desc":"2-海端鄉-加和部落-加和-AP2"},{"lng":121.12852,"city":"臺東縣","name":"加和-AP3","nearby":"","lat":22.99939,"desc":"2-海端鄉-加和部落-加和-AP3"},{"lng":121.12726,"city":"臺東縣","name":"加和-AP4","nearby":"","lat":22.99964,"desc":"2-海端鄉-加和部落-加和-AP4"},{"lng":121.12385,"city":"臺東縣","name":"加和-AP5","nearby":"","lat":23.00244,"desc":"2-海端鄉-加和部落-加和-AP5"},{"lng":121.12314,"city":"臺東縣","name":"加和-AP6","nearby":"","lat":23.0027,"desc":"2-海端鄉-加和部落-加和-AP6"},{"lng":120.88742,"city":"臺東縣","name":"土?-AP1","nearby":"","lat":22.45473,"desc":"2-達仁鄉-土?部落-土?-AP1"},{"lng":120.88643,"city":"臺東縣","name":"土?-AP2","nearby":"","lat":22.45414,"desc":"2-達仁鄉-土?部落-土?-AP2"},{"lng":120.88582,"city":"臺東縣","name":"土?-AP3","nearby":"","lat":22.45323,"desc":"2-達仁鄉-土?部落-土?-AP3"},{"lng":120.88532,"city":"臺東縣","name":"土?-AP4","nearby":"","lat":22.4541,"desc":"2-達仁鄉-土?部落-土?-AP4"},{"lng":120.88627,"city":"臺東縣","name":"土?-AP5","nearby":"1","lat":22.45506,"desc":"2-達仁鄉-土?部落-土?-AP5"},{"lng":120.88555,"city":"臺東縣","name":"土?-AP6","nearby":"","lat":22.45474,"desc":"2-達仁鄉-土?部落-土?-AP6"},{"lng":120.86774,"city":"臺東縣","name":"安朔-AP1","nearby":"","lat":22.29437,"desc":"2-達仁鄉-安朔部落-安朔-AP1"},{"lng":120.86616,"city":"臺東縣","name":"安朔-AP2","nearby":"","lat":22.294,"desc":"2-達仁鄉-安朔部落-安朔-AP2"},{"lng":120.867,"city":"臺東縣","name":"安朔-AP3","nearby":"","lat":22.29343,"desc":"2-達仁鄉-安朔部落-安朔-AP3"},{"lng":120.86648,"city":"臺東縣","name":"安朔-AP4","nearby":"","lat":22.29311,"desc":"2-達仁鄉-安朔部落-安朔-AP4"},{"lng":120.88363,"city":"臺東縣","name":"安朔-AP5","nearby":"","lat":22.29434,"desc":"2-達仁鄉-安朔部落-安朔-AP5"},{"lng":120.88467,"city":"臺東縣","name":"安朔-AP6","nearby":"","lat":22.29464,"desc":"2-達仁鄉-安朔部落-安朔-AP6"},{"lng":120.88437,"city":"臺東縣","name":"安朔-AP7","nearby":"","lat":22.29335,"desc":"2-達仁鄉-安朔部落-安朔-AP7"},{"lng":121.51341,"city":"臺東縣","name":"椰油-AP1","nearby":"1","lat":22.05044,"desc":"2-蘭嶼鄉-椰油部落-椰油-AP1"},{"lng":121.5125,"city":"臺東縣","name":"椰油-AP3","nearby":"","lat":22.05005,"desc":"2-蘭嶼鄉-椰油部落-椰油-AP3"},{"lng":121.51306,"city":"臺東縣","name":"椰油-AP2","nearby":"","lat":22.05164,"desc":"2-蘭嶼鄉-椰油部落-椰油-AP2"},{"lng":121.51311,"city":"臺東縣","name":"椰油-AP7","nearby":"","lat":22.05098,"desc":"2-蘭嶼鄉-椰油部落-椰油-AP7"},{"lng":121.51675,"city":"臺東縣","name":"椰油-AP8","nearby":"","lat":22.04664,"desc":"2-蘭嶼鄉-椰油部落-椰油-AP8"},{"lng":121.51198,"city":"臺東縣","name":"椰油-AP4","nearby":"","lat":22.05087,"desc":"2-蘭嶼鄉-椰油部落-椰油-AP4"},{"lng":121.51214,"city":"臺東縣","name":"椰油-AP5","nearby":"","lat":22.05129,"desc":"2-蘭嶼鄉-椰油部落-椰油-AP5"},{"lng":121.51105,"city":"臺東縣","name":"椰油-AP6","nearby":"","lat":22.0522,"desc":"2-蘭嶼鄉-椰油部落-椰油-AP6"},{"lng":120.95693,"city":"臺東縣","name":"查拉密-AP1","nearby":"","lat":22.50856,"desc":"2-太麻里鄉-查拉密部落-查拉密-AP1"},{"lng":120.9588,"city":"臺東縣","name":"查拉密-AP8","nearby":"","lat":22.50735,"desc":"2-太麻里鄉-查拉密部落-查拉密-AP8"},{"lng":120.9561,"city":"臺東縣","name":"查拉密-AP2","nearby":"","lat":22.50725,"desc":"2-太麻里鄉-查拉密部落-查拉密-AP2"},{"lng":120.95569,"city":"臺東縣","name":"查拉密-AP3","nearby":"","lat":22.50675,"desc":"2-太麻里鄉-查拉密部落-查拉密-AP3"},{"lng":120.95705,"city":"臺東縣","name":"查拉密-AP6","nearby":"","lat":22.50653,"desc":"2-太麻里鄉-查拉密部落-查拉密-AP6"},{"lng":120.95702,"city":"臺東縣","name":"查拉密-AP4","nearby":"","lat":22.50719,"desc":"2-太麻里鄉-查拉密部落-查拉密-AP4"},{"lng":120.95622,"city":"臺東縣","name":"查拉密-AP5","nearby":"","lat":22.5062,"desc":"2-太麻里鄉-查拉密部落-查拉密-AP5"},{"lng":120.95705,"city":"臺東縣","name":"查拉密-AP6","nearby":"","lat":22.50653,"desc":"2-太麻里鄉-查拉密部落-查拉密-AP6"},{"lng":120.95872,"city":"臺東縣","name":"查拉密-AP7","nearby":"","lat":22.50788,"desc":"2-太麻里鄉-查拉密部落-查拉密-AP7"},{"lng":120.95638,"city":"臺東縣","name":"查拉密-AP9","nearby":"","lat":22.50791,"desc":"2-太麻里鄉-查拉密部落-查拉密-AP9"},{"lng":121.00157,"city":"臺東縣","name":"卡多-AP1","nearby":"","lat":22.63355,"desc":"2-金峰鄉-卡多部落-卡多-AP1"},{"lng":121.00129,"city":"臺東縣","name":"卡多-AP4","nearby":"","lat":22.63444,"desc":"2-金峰鄉-卡多部落-卡多-AP4"},{"lng":121.00088,"city":"臺東縣","name":"卡多-AP2","nearby":"","lat":22.63355,"desc":"2-金峰鄉-卡多部落-卡多-AP2"},{"lng":121.00085,"city":"臺東縣","name":"卡多-AP3","nearby":"","lat":22.63433,"desc":"2-金峰鄉-卡多部落-卡多-AP3"},{"lng":120.99999,"city":"臺東縣","name":"卡多-AP5","nearby":"","lat":22.6345,"desc":"2-金峰鄉-卡多部落-卡多-AP5"},{"lng":120.99991,"city":"臺東縣","name":"卡多-AP6","nearby":"","lat":22.63537,"desc":"2-金峰鄉-卡多部落-卡多-AP6"},{"lng":120.99908,"city":"臺東縣","name":"卡多-AP7","nearby":"","lat":22.63574,"desc":"2-金峰鄉-卡多部落-卡多-AP7"},{"lng":121.38503,"city":"臺東縣","name":"芝田-AP3","nearby":"","lat":23.11026,"desc":"2-成功鎮-芝田部落-芝田-AP3"},{"lng":121.38662,"city":"臺東縣","name":"芝田-AP1","nearby":"","lat":23.10919,"desc":"2-成功鎮-芝田部落-芝田-AP1"},{"lng":121.38602,"city":"臺東縣","name":"芝田-AP2","nearby":"","lat":23.1096,"desc":"2-成功鎮-芝田部落-芝田-AP2"},{"lng":121.38447,"city":"臺東縣","name":"芝田-AP4","nearby":"","lat":23.11083,"desc":"2-成功鎮-芝田部落-芝田-AP4"},{"lng":121.38531,"city":"臺東縣","name":"芝田-AP5","nearby":"","lat":23.11106,"desc":"2-成功鎮-芝田部落-芝田-AP5"},{"lng":121.38568,"city":"臺東縣","name":"芝田-AP6","nearby":"","lat":23.11085,"desc":"2-成功鎮-芝田部落-芝田-AP6"},{"lng":121.46227,"city":"臺東縣","name":"長光(石坑)-AP1","nearby":"","lat":23.32928,"desc":"3-長濱鄉-長光(石坑)部落-長光(石坑)-AP1"},{"lng":121.46385,"city":"臺東縣","name":"長光(石坑)-AP7","nearby":"","lat":23.32857,"desc":"3-長濱鄉-長光(石坑)部落-長光(石坑)-AP7"},{"lng":121.4609,"city":"臺東縣","name":"長光(石坑)-AP3","nearby":"1","lat":23.32868,"desc":"3-長濱鄉-長光(石坑)部落-長光(石坑)-AP3"},{"lng":121.46099,"city":"臺東縣","name":"長光(石坑)-AP2","nearby":"","lat":23.32683,"desc":"3-長濱鄉-長光(石坑)部落-長光(石坑)-AP2"},{"lng":121.46066,"city":"臺東縣","name":"長光(石坑)-AP4","nearby":"","lat":23.33066,"desc":"3-長濱鄉-長光(石坑)部落-長光(石坑)-AP4"},{"lng":121.45873,"city":"臺東縣","name":"長光(石坑)-AP5","nearby":"","lat":23.32947,"desc":"3-長濱鄉-長光(石坑)部落-長光(石坑)-AP5"},{"lng":121.45853,"city":"臺東縣","name":"長光(石坑)-AP6","nearby":"","lat":23.33087,"desc":"3-長濱鄉-長光(石坑)部落-長光(石坑)-AP6"},{"lng":121.1513,"city":"臺東縣","name":"拿卡努-AP2","nearby":"","lat":22.89861,"desc":"3-延平鄉-拿卡努部落-拿卡努-AP2"},{"lng":121.15212,"city":"臺東縣","name":"拿卡努-AP3","nearby":"","lat":22.89914,"desc":"3-延平鄉-拿卡努部落-拿卡努-AP3"},{"lng":121.14998,"city":"臺東縣","name":"拿卡努-AP1","nearby":"","lat":22.89889,"desc":"3-延平鄉-拿卡努部落-拿卡努-AP1"},{"lng":121.15225,"city":"臺東縣","name":"拿卡努-AP4","nearby":"","lat":22.8999,"desc":"3-延平鄉-拿卡努部落-拿卡努-AP4"},{"lng":121.15172,"city":"臺東縣","name":"拿卡努-AP5","nearby":"","lat":22.90046,"desc":"3-延平鄉-拿卡努部落-拿卡努-AP5"},{"lng":121.15211,"city":"臺東縣","name":"拿卡努-AP6","nearby":"","lat":22.90103,"desc":"3-延平鄉-拿卡努部落-拿卡努-AP6"},{"lng":121.37499,"city":"臺東縣","name":"麻荖漏-AP5","nearby":"","lat":23.10415,"desc":"3-成功鎮-麻荖漏部落-麻荖漏-AP5"},{"lng":121.37342,"city":"臺東縣","name":"麻荖漏-AP4","nearby":"","lat":23.10472,"desc":"3-成功鎮-麻荖漏部落-麻荖漏-AP4"},{"lng":121.3763,"city":"臺東縣","name":"麻荖漏-AP6","nearby":"","lat":23.10386,"desc":"3-成功鎮-麻荖漏部落-麻荖漏-AP6"},{"lng":121.37637,"city":"臺東縣","name":"麻荖漏-AP7","nearby":"","lat":23.10498,"desc":"3-成功鎮-麻荖漏部落-麻荖漏-AP7"},{"lng":121.37226,"city":"臺東縣","name":"麻荖漏-AP1","nearby":"","lat":23.10243,"desc":"3-成功鎮-麻荖漏部落-麻荖漏-AP1"},{"lng":121.37348,"city":"臺東縣","name":"麻荖漏-AP2","nearby":"","lat":23.10321,"desc":"3-成功鎮-麻荖漏部落-麻荖漏-AP2"},{"lng":121.37497,"city":"臺東縣","name":"麻荖漏-AP3","nearby":"","lat":23.10324,"desc":"3-成功鎮-麻荖漏部落-麻荖漏-AP3"},{"lng":121.16174,"city":"臺東縣","name":"5D-001","nearby":"","lat":22.782871,"desc":"臺東1-臺東市-石山部落-5D-001"},{"lng":121.1608,"city":"臺東縣","name":"5D-002","nearby":"","lat":22.78313,"desc":"臺東1-臺東市-石山部落-5D-002"},{"lng":121.16037,"city":"臺東縣","name":"5D-003","nearby":"","lat":22.78403,"desc":"臺東1-臺東市-石山部落-5D-003"},{"lng":121.16097,"city":"臺東縣","name":"5D-004","nearby":"","lat":22.783731,"desc":"臺東1-臺東市-石山部落-5D-004"},{"lng":121.154594,"city":"臺東縣","name":"5D-005","nearby":"","lat":22.764233,"desc":"臺東1-臺東市-巴布麓部落-5D-005"},{"lng":121.15455,"city":"臺東縣","name":"5D-006","nearby":"","lat":22.76339,"desc":"臺東1-臺東市-巴布麓部落-5D-006"},{"lng":121.15407,"city":"臺東縣","name":"5D-007","nearby":"","lat":22.76292,"desc":"臺東1-臺東市-巴布麓部落-5D-007"},{"lng":120.9969,"city":"臺東縣","name":"5D-008","nearby":"","lat":22.604408,"desc":"臺東1-臺東市-巴布麓部落-5D-008"},{"lng":121.15375,"city":"臺東縣","name":"5D-009","nearby":"","lat":22.76441,"desc":"臺東1-臺東市-巴布麓部落-5D-009"},{"lng":121.13863,"city":"臺東縣","name":"5D-010","nearby":"","lat":22.762278,"desc":"臺東1-臺東市-馬蘭部落-5D-010"},{"lng":121.13843,"city":"臺東縣","name":"5D-011","nearby":"","lat":22.76648,"desc":"臺東1-臺東市-馬蘭部落-5D-011"},{"lng":121.138596,"city":"臺東縣","name":"5D-012","nearby":"","lat":22.769468,"desc":"臺東1-臺東市-馬蘭部落-5D-012"},{"lng":121.13934,"city":"臺東縣","name":"5D-013","nearby":"","lat":22.76967,"desc":"臺東1-臺東市-馬蘭部落-5D-013"},{"lng":120.880806,"city":"臺東縣","name":"5D-014","nearby":"","lat":22.345264,"desc":"臺東1-大武鄉-古庄部落-5D-014"},{"lng":120.88012,"city":"臺東縣","name":"5D-015","nearby":"","lat":22.345669,"desc":"臺東1-大武鄉-古庄部落-5D-015"},{"lng":120.87981,"city":"臺東縣","name":"5D-016","nearby":"","lat":22.3452,"desc":"臺東1-大武鄉-古庄部落-5D-016"},{"lng":120.91076,"city":"臺東縣","name":"5D-017","nearby":"","lat":22.383759,"desc":"臺東1-大武鄉-大鳥部落-5D-017"},{"lng":120.9107,"city":"臺東縣","name":"5D-018","nearby":"","lat":22.38483,"desc":"臺東1-大武鄉-大鳥部落-5D-018"},{"lng":120.91066,"city":"臺東縣","name":"5D-019","nearby":"","lat":22.38619,"desc":"臺東1-大武鄉-大鳥部落-5D-019"},{"lng":120.90938,"city":"臺東縣","name":"5D-020","nearby":"","lat":22.38574,"desc":"臺東1-大武鄉-大鳥部落-5D-020"},{"lng":120.909584,"city":"臺東縣","name":"5D-021","nearby":"","lat":22.384892,"desc":"臺東1-大武鄉-大鳥部落-5D-021"},{"lng":120.961205,"city":"臺東縣","name":"5D-022","nearby":"","lat":22.532545,"desc":"臺東1-金峰鄉-賓茂部落-5D-022"},{"lng":120.96143,"city":"臺東縣","name":"5D-023","nearby":"","lat":22.53186,"desc":"臺東1-金峰鄉-賓茂部落-5D-023"},{"lng":120.96002,"city":"臺東縣","name":"5D-024","nearby":"","lat":22.53221,"desc":"臺東1-金峰鄉-賓茂部落-5D-024"},{"lng":120.95997,"city":"臺東縣","name":"5D-025","nearby":"","lat":22.53227,"desc":"臺東1-金峰鄉-賓茂部落-5D-025"},{"lng":120.9979,"city":"臺東縣","name":"5D-026","nearby":"","lat":22.60559,"desc":"臺東1-金峰鄉-包霧目力部落-5D-026"},{"lng":120.9983,"city":"臺東縣","name":"5D-027","nearby":"","lat":22.605078,"desc":"臺東1-金峰鄉-包霧目力部落-5D-027"},{"lng":120.9969,"city":"臺東縣","name":"5D-028","nearby":"","lat":22.604408,"desc":"臺東1-金峰鄉-包霧目力部落-5D-028"},{"lng":120.99629,"city":"臺東縣","name":"5D-029","nearby":"","lat":22.605612,"desc":"臺東1-金峰鄉-包霧目力部落-5D-029"},{"lng":120.90721,"city":"臺東縣","name":"5D-030","nearby":"","lat":22.477446,"desc":"臺東1-達仁鄉-台?部落-5D-030"},{"lng":120.90683,"city":"臺東縣","name":"5D-031","nearby":"","lat":22.4776,"desc":"臺東1-達仁鄉-台?部落-5D-031"},{"lng":120.90836,"city":"臺東縣","name":"5D-032","nearby":"","lat":22.47762,"desc":"臺東1-達仁鄉-台?部落-5D-032"},{"lng":120.9087,"city":"臺東縣","name":"5D-033","nearby":"","lat":22.47855,"desc":"臺東1-達仁鄉-台?部落-5D-033"},{"lng":120.86461,"city":"臺東縣","name":"5D-034","nearby":"","lat":22.279978,"desc":"臺東1-達仁鄉-森永部落-5D-034"},{"lng":120.86484,"city":"臺東縣","name":"5D-035","nearby":"","lat":22.28137,"desc":"臺東1-達仁鄉-森永部落-5D-035"},{"lng":120.86518,"city":"臺東縣","name":"5D-036","nearby":"","lat":22.282463,"desc":"臺東1-達仁鄉-森永部落-5D-036"},{"lng":120.86663,"city":"臺東縣","name":"5D-037","nearby":"","lat":22.283552,"desc":"臺東1-達仁鄉-森永部落-5D-037"},{"lng":120.913536,"city":"臺東縣","name":"5D-038","nearby":"","lat":22.481445,"desc":"臺東1-達仁鄉-拉里巴部落-5D-038"},{"lng":120.91347,"city":"臺東縣","name":"5D-039","nearby":"","lat":22.48062,"desc":"臺東1-達仁鄉-拉里巴部落-5D-039"},{"lng":120.91328,"city":"臺東縣","name":"5D-040","nearby":"","lat":22.479603,"desc":"臺東1-達仁鄉-拉里巴部落-5D-040"},{"lng":120.91314,"city":"臺東縣","name":"5D-041","nearby":"","lat":22.47891,"desc":"臺東1-達仁鄉-拉里巴部落-5D-041"},{"lng":121.06649,"city":"臺東縣","name":"5D-042","nearby":"","lat":22.79349,"desc":"臺東1-卑南鄉-大巴六九部落-5D-042"},{"lng":121.06659,"city":"臺東縣","name":"5D-043","nearby":"","lat":22.79349,"desc":"臺東1-卑南鄉-大巴六九部落-5D-043"},{"lng":121.06909,"city":"臺東縣","name":"5D-044","nearby":"","lat":22.79805,"desc":"臺東1-卑南鄉-大巴六九部落-5D-044"},{"lng":121.06779,"city":"臺東縣","name":"5D-045","nearby":"","lat":22.80002,"desc":"臺東1-卑南鄉-大巴六九部落-5D-045"},{"lng":121.18601,"city":"臺東縣","name":"5D-046","nearby":"","lat":22.828857,"desc":"臺東1-卑南鄉-莿桐部落-5D-046"},{"lng":121.18894,"city":"臺東縣","name":"5D-047","nearby":"","lat":22.82007,"desc":"臺東1-卑南鄉-莿桐部落-5D-047"},{"lng":121.1891,"city":"臺東縣","name":"5D-048","nearby":"","lat":22.82259,"desc":"臺東1-卑南鄉-莿桐部落-5D-048"},{"lng":121.17298,"city":"臺東縣","name":"5D-049","nearby":"","lat":22.97376,"desc":"臺東1-鹿野鄉-瑞興部落-5D-049"},{"lng":121.155975,"city":"臺東縣","name":"5D-050","nearby":"","lat":22.97701,"desc":"臺東1-鹿野鄉-瑞興部落-5D-050"},{"lng":121.13673,"city":"臺東縣","name":"5D-051","nearby":"","lat":22.892889,"desc":"臺東1-鹿野鄉-鹿野和平部落-5D-051"},{"lng":121.13814,"city":"臺東縣","name":"5D-052","nearby":"","lat":22.892448,"desc":"臺東1-鹿野鄉-鹿野和平部落-5D-052"},{"lng":121.13979,"city":"臺東縣","name":"5D-053","nearby":"","lat":22.891867,"desc":"臺東1-鹿野鄉-鹿野和平部落-5D-053"},{"lng":121.14019,"city":"臺東縣","name":"5D-054","nearby":"","lat":22.891739,"desc":"臺東1-鹿野鄉-鹿野和平部落-5D-054"},{"lng":121.15228,"city":"臺東縣","name":"5D-055","nearby":"","lat":22.957357,"desc":"臺東1-鹿野鄉-卡拿吾部部落-5D-055"},{"lng":121.157455,"city":"臺東縣","name":"5D-056","nearby":"","lat":22.951965,"desc":"臺東1-鹿野鄉-卡拿吾部部落-5D-056"},{"lng":121.15802,"city":"臺東縣","name":"5D-057","nearby":"","lat":22.9513,"desc":"臺東1-鹿野鄉-卡拿吾部部落-5D-057"},{"lng":121.17201,"city":"臺東縣","name":"5D-058","nearby":"","lat":23.046011,"desc":"臺東1-關山鎮-新福部落-5D-058"},{"lng":121.17287,"city":"臺東縣","name":"5D-059","nearby":"","lat":23.04993,"desc":"臺東1-關山鎮-新福部落-5D-059"},{"lng":121.17617,"city":"臺東縣","name":"5D-060","nearby":"","lat":23.05382,"desc":"臺東1-關山鎮-新福部落-5D-060"},{"lng":121.17348,"city":"臺東縣","name":"5D-061","nearby":"","lat":23.00749,"desc":"臺東1-關山鎮-電光部落-5D-061"},{"lng":121.174,"city":"臺東縣","name":"5D-062","nearby":"","lat":23.008411,"desc":"臺東1-關山鎮-電光部落-5D-062"},{"lng":121.17404,"city":"臺東縣","name":"5D-063","nearby":"","lat":23.00974,"desc":"臺東1-關山鎮-電光部落-5D-063"},{"lng":121.173584,"city":"臺東縣","name":"5D-064","nearby":"","lat":23.009178,"desc":"臺東1-關山鎮-電光部落-5D-064"},{"lng":121.1739,"city":"臺東縣","name":"5D-065","nearby":"","lat":23.005497,"desc":"臺東1-關山鎮-電光部落-5D-065"},{"lng":121.18676,"city":"臺東縣","name":"5D-066","nearby":"","lat":23.13164,"desc":"臺東1-池上鄉-陸安部落-5D-066"},{"lng":121.18915,"city":"臺東縣","name":"5D-067","nearby":"","lat":23.13201,"desc":"臺東1-池上鄉-陸安部落-5D-067"},{"lng":121.18799,"city":"臺東縣","name":"5D-068","nearby":"","lat":23.13228,"desc":"臺東1-池上鄉-陸安部落-5D-068"},{"lng":121.39937,"city":"臺東縣","name":"5D-069","nearby":"","lat":23.210112,"desc":"臺東1-成功鎮-宜灣部落-5D-069"},{"lng":121.39937,"city":"臺東縣","name":"5D-070","nearby":"","lat":23.21011,"desc":"臺東1-成功鎮-宜灣部落-5D-070"},{"lng":121.39758,"city":"臺東縣","name":"5D-071","nearby":"","lat":23.208351,"desc":"臺東1-成功鎮-宜灣部落-5D-071"},{"lng":121.39883,"city":"臺東縣","name":"5D-072","nearby":"","lat":23.20883,"desc":"臺東1-成功鎮-宜灣部落-5D-072"},{"lng":121.338806,"city":"臺東縣","name":"5D-073","nearby":"","lat":23.050583,"desc":"臺東1-成功鎮-八嗡嗡部落-5D-073"},{"lng":121.33835,"city":"臺東縣","name":"5D-074","nearby":"","lat":23.051193,"desc":"臺東1-成功鎮-八嗡嗡部落-5D-074"},{"lng":121.33696,"city":"臺東縣","name":"5D-075","nearby":"","lat":23.049335,"desc":"臺東1-成功鎮-八嗡嗡部落-5D-075"},{"lng":121.33787,"city":"臺東縣","name":"5D-076","nearby":"","lat":23.05051,"desc":"臺東1-成功鎮-八嗡嗡部落-5D-076"},{"lng":121.35659,"city":"臺東縣","name":"5D-077","nearby":"","lat":23.0927,"desc":"臺東1-成功鎮-麒麟部落-5D-077"},{"lng":121.356804,"city":"臺東縣","name":"5D-078","nearby":"","lat":23.093018,"desc":"臺東1-成功鎮-麒麟部落-5D-078"},{"lng":121.356255,"city":"臺東縣","name":"5D-079","nearby":"","lat":23.090157,"desc":"臺東1-成功鎮-麒麟部落-5D-079"},{"lng":121.35838,"city":"臺東縣","name":"5D-080","nearby":"","lat":23.095964,"desc":"臺東1-成功鎮-麒麟部落-5D-080"},{"lng":121.35565,"city":"臺東縣","name":"5D-081","nearby":"","lat":23.08788,"desc":"臺東1-成功鎮-麒麟部落-5D-081"},{"lng":121.34967,"city":"臺東縣","name":"5D-082","nearby":"","lat":23.075378,"desc":"臺東1-成功鎮-成功和平部落-5D-082"},{"lng":121.349106,"city":"臺東縣","name":"5D-083","nearby":"","lat":23.074495,"desc":"臺東1-成功鎮-成功和平部落-5D-083"},{"lng":121.350235,"city":"臺東縣","name":"5D-084","nearby":"","lat":23.076218,"desc":"臺東1-成功鎮-成功和平部落-5D-084"},{"lng":121.353645,"city":"臺東縣","name":"5D-085","nearby":"","lat":23.083742,"desc":"臺東1-成功鎮-成功和平部落-5D-085"},{"lng":121.34257,"city":"臺東縣","name":"5D-086","nearby":"","lat":23.057587,"desc":"臺東1-成功鎮-成功和平部落-5D-086"},{"lng":121.35368,"city":"臺東縣","name":"5D-087","nearby":"","lat":23.0818,"desc":"臺東1-成功鎮-成功和平部落-5D-087"},{"lng":121.41319,"city":"臺東縣","name":"5D-088","nearby":"","lat":23.234539,"desc":"臺東1-長濱鄉-烏石鼻部落-5D-088"},{"lng":121.41319,"city":"臺東縣","name":"5D-089","nearby":"","lat":23.23454,"desc":"臺東1-長濱鄉-烏石鼻部落-5D-089"},{"lng":121.4143,"city":"臺東縣","name":"5D-090","nearby":"","lat":23.23644,"desc":"臺東1-長濱鄉-烏石鼻部落-5D-090"},{"lng":121.41298,"city":"臺東縣","name":"5D-091","nearby":"","lat":23.232922,"desc":"臺東1-長濱鄉-烏石鼻部落-5D-091"},{"lng":121.4131,"city":"臺東縣","name":"5D-092","nearby":"","lat":23.247149,"desc":"臺東1-長濱鄉-僅那鹿角部落-5D-092"},{"lng":121.41209,"city":"臺東縣","name":"5D-093","nearby":"","lat":23.24692,"desc":"臺東1-長濱鄉-僅那鹿角部落-5D-093"},{"lng":121.411644,"city":"臺東縣","name":"5D-094","nearby":"","lat":23.247715,"desc":"臺東1-長濱鄉-僅那鹿角部落-5D-094"},{"lng":121.4845,"city":"臺東縣","name":"5D-095","nearby":"","lat":23.41576,"desc":"臺東1-長濱鄉-樟原部落-5D-095"},{"lng":121.4837,"city":"臺東縣","name":"5D-096","nearby":"","lat":23.41617,"desc":"臺東1-長濱鄉-樟原部落-5D-096"},{"lng":121.482796,"city":"臺東縣","name":"5D-097","nearby":"","lat":23.414965,"desc":"臺東1-長濱鄉-樟原部落-5D-097"},{"lng":121.48301,"city":"臺東縣","name":"5D-098","nearby":"","lat":23.414392,"desc":"臺東1-長濱鄉-樟原部落-5D-098"},{"lng":121.48418,"city":"臺東縣","name":"5D-099","nearby":"","lat":23.41748,"desc":"臺東1-長濱鄉-樟原部落-5D-099"},{"lng":121.26913,"city":"臺東縣","name":"5D-100","nearby":"","lat":22.928026,"desc":"臺東1-東河鄉-佳尼發納部落-5D-100"},{"lng":121.26852,"city":"臺東縣","name":"5D-101","nearby":"","lat":22.92681,"desc":"臺東1-東河鄉-佳尼發納部落-5D-101"},{"lng":121.26716,"city":"臺東縣","name":"5D-102","nearby":"","lat":22.92637,"desc":"臺東1-東河鄉-佳尼發納部落-5D-102"},{"lng":121.26646,"city":"臺東縣","name":"5D-103","nearby":"","lat":22.9235,"desc":"臺東1-東河鄉-佳尼發納部落-5D-103"},{"lng":121.26848,"city":"臺東縣","name":"5D-104","nearby":"","lat":22.92556,"desc":"臺東1-東河鄉-佳尼發納部落-5D-104"},{"lng":121.15648,"city":"臺東縣","name":"5D-105","nearby":"","lat":22.976553,"desc":"臺東1-鹿野鄉-瑞興部落-5D-105"},{"lng":121.156395,"city":"臺東縣","name":"5D-106","nearby":"","lat":22.97518,"desc":"臺東1-鹿野鄉-瑞興部落-5D-106"},{"lng":121.16189,"city":"臺東縣","name":"5D-201","nearby":"","lat":22.78285,"desc":"臺東1-臺東市-石山部落-5D-201"},{"lng":121.15459,"city":"臺東縣","name":"5D-202","nearby":"","lat":22.764233,"desc":"臺東1-臺東市-巴布麓部落-5D-202"},{"lng":121.13872,"city":"臺東縣","name":"5D-203","nearby":"","lat":22.762041,"desc":"臺東1-臺東市-馬蘭部落-5D-203"},{"lng":120.879776,"city":"臺東縣","name":"5D-204","nearby":"","lat":22.349031,"desc":"臺東1-大武鄉-古庄部落-5D-204"},{"lng":120.91067,"city":"臺東縣","name":"5D-205","nearby":"","lat":22.383955,"desc":"臺東1-大武鄉-大鳥部落-5D-205"},{"lng":120.96135,"city":"臺東縣","name":"5D-206","nearby":"","lat":22.53239,"desc":"臺東1-金峰鄉-賓茂部落-5D-206"},{"lng":120.9976,"city":"臺東縣","name":"5D-207","nearby":"","lat":22.605488,"desc":"臺東1-金峰鄉-包霧目力部落-5D-207"},{"lng":120.90779,"city":"臺東縣","name":"5D-208","nearby":"","lat":22.47799,"desc":"臺東1-達仁鄉-台?部落-5D-208"},{"lng":120.864845,"city":"臺東縣","name":"5D-209","nearby":"","lat":22.279873,"desc":"臺東1-達仁鄉-森永部落-5D-209"},{"lng":120.91358,"city":"臺東縣","name":"5D-210","nearby":"","lat":22.481525,"desc":"臺東1-達仁鄉-拉里巴部落-5D-210"},{"lng":121.10365,"city":"臺東縣","name":"5D-211","nearby":"","lat":22.78219,"desc":"臺東1-卑南鄉-大巴六九部落-5D-211"},{"lng":121.18617,"city":"臺東縣","name":"5D-212","nearby":"","lat":22.828432,"desc":"臺東1-卑南鄉-莿桐部落-5D-212"},{"lng":121.17246,"city":"臺東縣","name":"5D-213","nearby":"","lat":22.97384,"desc":"臺東1-鹿野鄉-瑞興部落-5D-213"},{"lng":121.137535,"city":"臺東縣","name":"5D-214","nearby":"","lat":22.893269,"desc":"臺東1-鹿野鄉-鹿野和平部落-5D-214"},{"lng":121.1523,"city":"臺東縣","name":"5D-215","nearby":"","lat":22.95715,"desc":"臺東1-鹿野鄉-卡拿吾部部落-5D-215"},{"lng":121.172134,"city":"臺東縣","name":"5D-216","nearby":"","lat":23.046114,"desc":"臺東1-關山鎮-新福部落-5D-216"},{"lng":121.17344,"city":"臺東縣","name":"5D-217","nearby":"","lat":23.007477,"desc":"臺東1-關山鎮-電光部落-5D-217"},{"lng":121.18668,"city":"臺東縣","name":"5D-218","nearby":"","lat":23.131596,"desc":"臺東1-池上鄉-陸安部落-5D-218"},{"lng":121.400246,"city":"臺東縣","name":"5D-219","nearby":"","lat":23.211039,"desc":"臺東1-成功鎮-宜灣部落-5D-219"},{"lng":121.33896,"city":"臺東縣","name":"5D-220","nearby":"","lat":23.050406,"desc":"臺東1-成功鎮-八嗡嗡部落-5D-220"},{"lng":121.35697,"city":"臺東縣","name":"5D-221","nearby":"","lat":23.09236,"desc":"臺東1-成功鎮-麒麟部落-5D-221"},{"lng":121.349594,"city":"臺東縣","name":"5D-222","nearby":"","lat":23.074972,"desc":"臺東1-成功鎮-成功和平部落-5D-222"},{"lng":121.41357,"city":"臺東縣","name":"5D-223","nearby":"","lat":23.23525,"desc":"臺東1-長濱鄉-烏石鼻部落-5D-223"},{"lng":121.41309,"city":"臺東縣","name":"5D-224","nearby":"","lat":23.247149,"desc":"臺東1-長濱鄉-僅那鹿角部落-5D-224"},{"lng":121.48475,"city":"臺東縣","name":"5D-225","nearby":"","lat":23.41571,"desc":"臺東1-長濱鄉-樟原部落-5D-225"},{"lng":121.26935,"city":"臺東縣","name":"5D-226","nearby":"","lat":22.92816,"desc":"臺東1-東河鄉-佳尼發納部落-5D-226"},{"lng":121.3956,"city":"臺東縣","name":"TT-CA-AP1","nearby":"","lat":23.193289,"desc":"4-成功鎮重安部落-TT-CA-AP1"},{"lng":121.39555,"city":"臺東縣","name":"TT-CA-AP2","nearby":"","lat":23.192978,"desc":"4-成功鎮重安部落-TT-CA-AP2"},{"lng":121.39367,"city":"臺東縣","name":"TT-CA-AP3","nearby":"","lat":23.193495,"desc":"4-成功鎮重安部落-TT-CA-AP3"},{"lng":121.39591,"city":"臺東縣","name":"TT-CA-AP4","nearby":"","lat":23.191742,"desc":"4-成功鎮重安部落-TT-CA-AP4"},{"lng":121.17698,"city":"臺東縣","name":"TT-CP-AP1","nearby":"","lat":23.131243,"desc":"4-海端鄉錦屏部落-TT-CP-AP1"},{"lng":121.17689,"city":"臺東縣","name":"TT-CP-AP2","nearby":"","lat":23.131737,"desc":"4-海端鄉錦屏部落-TT-CP-AP2"},{"lng":121.174034,"city":"臺東縣","name":"TT-CP-AP3","nearby":"","lat":23.129837,"desc":"4-海端鄉錦屏部落-TT-CP-AP3"},{"lng":121.17485,"city":"臺東縣","name":"TT-CP-AP4","nearby":"","lat":23.130022,"desc":"4-海端鄉錦屏部落-TT-CP-AP4"},{"lng":121.17475,"city":"臺東縣","name":"TT-CP-AP5","nearby":"","lat":23.129873,"desc":"4-海端鄉錦屏部落-TT-CP-AP5"},{"lng":120.92245,"city":"臺東縣","name":"TT-DC-AP1","nearby":"","lat":22.454466,"desc":"4-大武鄉大竹工作地部落-TT-DC-AP1"},{"lng":120.92192,"city":"臺東縣","name":"TT-DC-AP2","nearby":"","lat":22.457039,"desc":"4-大武鄉大竹工作地部落-TT-DC-AP2"},{"lng":120.92209,"city":"臺東縣","name":"TT-DC-AP3","nearby":"","lat":22.457623,"desc":"4-大武鄉大竹工作地部落-TT-DC-AP3"},{"lng":120.92487,"city":"臺東縣","name":"TT-DC-AP4","nearby":"","lat":22.457792,"desc":"4-大武鄉大竹工作地部落-TT-DC-AP4"},{"lng":120.92488,"city":"臺東縣","name":"TT-DC-AP5","nearby":"","lat":22.457907,"desc":"4-大武鄉大竹工作地部落-TT-DC-AP5"},{"lng":121.33099,"city":"臺東縣","name":"TT-DL-AP1","nearby":"","lat":23.026972,"desc":"1-成功鎮都歷部落-TT-DL-AP1"},{"lng":121.33119,"city":"臺東縣","name":"TT-DL-AP2","nearby":"","lat":23.027365,"desc":"1-成功鎮都歷部落-TT-DL-AP2"},{"lng":121.33086,"city":"臺東縣","name":"TT-DL-AP3","nearby":"","lat":23.028305,"desc":"1-成功鎮都歷部落-TT-DL-AP3"},{"lng":121.33109,"city":"臺東縣","name":"TT-DL-AP4","nearby":"","lat":23.028406,"desc":"1-成功鎮都歷部落-TT-DL-AP4"},{"lng":121.33416,"city":"臺東縣","name":"TT-DL-AP5","nearby":"","lat":23.030846,"desc":"1-成功鎮都歷部落-TT-DL-AP5"},{"lng":121.33126,"city":"臺東縣","name":"TT-DL-AP6","nearby":"","lat":23.026464,"desc":"1-成功鎮都歷部落-TT-DL-AP6"},{"lng":121.329636,"city":"臺東縣","name":"TT-DL-AP7","nearby":"","lat":23.027805,"desc":"1-成功鎮都歷部落-TT-DL-AP7"},{"lng":120.90418,"city":"臺東縣","name":"TT-DW-AP1","nearby":"","lat":22.356653,"desc":"4-大武鄉大武部落-TT-DW-AP1"},{"lng":120.90459,"city":"臺東縣","name":"TT-DW-AP2","nearby":"","lat":22.35701,"desc":"4-大武鄉大武部落-TT-DW-AP2"},{"lng":120.905396,"city":"臺東縣","name":"TT-DW-AP3","nearby":"","lat":22.3577,"desc":"4-大武鄉大武部落-TT-DW-AP3"},{"lng":120.906105,"city":"臺東縣","name":"TT-DW-AP4","nearby":"","lat":22.358189,"desc":"4-大武鄉大武部落-TT-DW-AP4"},{"lng":120.905334,"city":"臺東縣","name":"TT-DW-AP5","nearby":"","lat":22.360458,"desc":"4-大武鄉大武部落-TT-DW-AP5"},{"lng":120.90527,"city":"臺東縣","name":"TT-DW-AP6","nearby":"","lat":22.36378,"desc":"4-大武鄉大武部落-TT-DW-AP6"},{"lng":120.9061,"city":"臺東縣","name":"TT-DW-AP7","nearby":"","lat":22.363827,"desc":"4-大武鄉大武部落-TT-DW-AP7"},{"lng":121.30055,"city":"臺東縣","name":"TT-FFK-AP1","nearby":"","lat":22.966467,"desc":"4-東河鄉發富谷部落-TT-FFK-AP1"},{"lng":121.30212,"city":"臺東縣","name":"TT-FFK-AP2","nearby":"","lat":22.96746,"desc":"4-東河鄉發富谷部落-TT-FFK-AP2"},{"lng":121.303444,"city":"臺東縣","name":"TT-FFK-AP3","nearby":"","lat":22.969133,"desc":"4-東河鄉發富谷部落-TT-FFK-AP3"},{"lng":121.30478,"city":"臺東縣","name":"TT-FFK-AP4","nearby":"","lat":22.968178,"desc":"4-東河鄉發富谷部落-TT-FFK-AP4"},{"lng":121.30493,"city":"臺東縣","name":"TT-FFK-AP5","nearby":"","lat":22.96966,"desc":"4-東河鄉發富谷部落-TT-FFK-AP5"},{"lng":121.30452,"city":"臺東縣","name":"TT-FFK-AP6","nearby":"","lat":22.97026,"desc":"4-東河鄉發富谷部落-TT-FFK-AP6"},{"lng":121.30567,"city":"臺東縣","name":"TT-FFK-AP7","nearby":"","lat":22.973099,"desc":"4-東河鄉發富谷部落-TT-FFK-AP7"},{"lng":121.40105,"city":"臺東縣","name":"TT-HK-AP1","nearby":"","lat":23.157804,"desc":"4-成功鎮小港部落-TT-HK-AP1"},{"lng":121.40173,"city":"臺東縣","name":"TT-HK-AP2","nearby":"","lat":23.159288,"desc":"4-成功鎮小港部落-TT-HK-AP2"},{"lng":121.40061,"city":"臺東縣","name":"TT-HK-AP3","nearby":"","lat":23.15833,"desc":"4-成功鎮小港部落-TT-HK-AP3"},{"lng":121.40016,"city":"臺東縣","name":"TT-HK-AP4","nearby":"","lat":23.158249,"desc":"4-成功鎮小港部落-TT-HK-AP4"},{"lng":120.9609,"city":"臺東縣","name":"TT-KALW-AP1","nearby":"","lat":22.5945,"desc":"4-金峰鄉卡阿魯彎部落-TT-KALW-AP1"},{"lng":120.96215,"city":"臺東縣","name":"TT-KALW-AP2","nearby":"","lat":22.594198,"desc":"4-金峰鄉卡阿魯彎部落-TT-KALW-AP2"},{"lng":120.96,"city":"臺東縣","name":"TT-KALW-AP3","nearby":"","lat":22.59786,"desc":"4-金峰鄉卡阿魯彎部落-TT-KALW-AP3"},{"lng":120.96037,"city":"臺東縣","name":"TT-KALW-AP4","nearby":"","lat":22.59737,"desc":"4-金峰鄉卡阿魯彎部落-TT-KALW-AP4"},{"lng":120.96225,"city":"臺東縣","name":"TT-KALW-AP5","nearby":"","lat":22.598207,"desc":"4-金峰鄉卡阿魯彎部落-TT-KALW-AP5"},{"lng":120.95754,"city":"臺東縣","name":"TT-KALW-AP6","nearby":"","lat":22.59653,"desc":"4-金峰鄉卡阿魯彎部落-TT-KALW-AP6"},{"lng":120.95986,"city":"臺東縣","name":"TT-KALW-AP7","nearby":"","lat":22.59669,"desc":"4-金峰鄉卡阿魯彎部落-TT-KALW-AP7"},{"lng":121.52581,"city":"臺東縣","name":"TT-LD-AP1","nearby":"","lat":22.078396,"desc":"4-蘭嶼鄉朗島部落-TT-LD-AP1"},{"lng":121.5272,"city":"臺東縣","name":"TT-LD-AP2","nearby":"","lat":22.078,"desc":"4-蘭嶼鄉朗島部落-TT-LD-AP2"},{"lng":121.53007,"city":"臺東縣","name":"TT-LD-AP3","nearby":"","lat":22.078505,"desc":"4-蘭嶼鄉朗島部落-TT-LD-AP3"},{"lng":121.5289,"city":"臺東縣","name":"TT-LD-AP4","nearby":"","lat":22.0791,"desc":"4-蘭嶼鄉朗島部落-TT-LD-AP4"},{"lng":121.5297,"city":"臺東縣","name":"TT-LD-AP5","nearby":"","lat":22.0787,"desc":"4-蘭嶼鄉朗島部落-TT-LD-AP5"},{"lng":121.52734,"city":"臺東縣","name":"TT-LD-AP6","nearby":"","lat":22.07783,"desc":"4-蘭嶼鄉朗島部落-TT-LD-AP6"},{"lng":121.52475,"city":"臺東縣","name":"TT-LD-AP7","nearby":"","lat":22.08089,"desc":"4-蘭嶼鄉朗島部落-TT-LD-AP7"},{"lng":121.06577,"city":"臺東縣","name":"TT-LJ-AP1","nearby":"","lat":22.7757,"desc":"4-卑南鄉利嘉部落-TT-LJ-AP1"},{"lng":121.06514,"city":"臺東縣","name":"TT-LJ-AP2","nearby":"","lat":22.775208,"desc":"4-卑南鄉利嘉部落-TT-LJ-AP2"},{"lng":121.06528,"city":"臺東縣","name":"TT-LJ-AP3","nearby":"","lat":22.775068,"desc":"4-卑南鄉利嘉部落-TT-LJ-AP3"},{"lng":121.0641,"city":"臺東縣","name":"TT-LJ-AP4","nearby":"","lat":22.775927,"desc":"4-卑南鄉利嘉部落-TT-LJ-AP4"},{"lng":121.06359,"city":"臺東縣","name":"TT-LJ-AP5","nearby":"","lat":22.775192,"desc":"4-卑南鄉利嘉部落-TT-LJ-AP5"},{"lng":121.06341,"city":"臺東縣","name":"TT-LJ-AP6","nearby":"","lat":22.773693,"desc":"4-卑南鄉利嘉部落-TT-LJ-AP6"},{"lng":121.0635,"city":"臺東縣","name":"TT-LJ-AP7","nearby":"","lat":22.773556,"desc":"4-卑南鄉利嘉部落-TT-LJ-AP7"},{"lng":121.06471,"city":"臺東縣","name":"TT-LJ-AP8","nearby":"","lat":22.777004,"desc":"4-卑南鄉利嘉部落-TT-LJ-AP8"},{"lng":121.06537,"city":"臺東縣","name":"TT-LJ-AP9","nearby":"","lat":22.777908,"desc":"4-卑南鄉利嘉部落-TT-LJ-AP9"},{"lng":121.3833,"city":"臺東縣","name":"TT-MF-AP1","nearby":"","lat":23.1037,"desc":"4-成功鎮民豐部落-TT-MF-AP1"},{"lng":121.3829,"city":"臺東縣","name":"TT-MF-AP2","nearby":"","lat":23.104,"desc":"4-成功鎮民豐部落-TT-MF-AP2"},{"lng":121.383514,"city":"臺東縣","name":"TT-MF-AP3","nearby":"","lat":23.103298,"desc":"4-成功鎮民豐部落-TT-MF-AP3"},{"lng":121.38257,"city":"臺東縣","name":"TT-MF-AP4","nearby":"","lat":23.103613,"desc":"4-成功鎮民豐部落-TT-MF-AP4"},{"lng":121.397484,"city":"臺東縣","name":"TT-MS-AP1","nearby":"","lat":23.153547,"desc":"4-成功鎮美山部落-TT-MS-AP1"},{"lng":121.398224,"city":"臺東縣","name":"TT-MS-AP2","nearby":"","lat":23.153091,"desc":"4-成功鎮美山部落-TT-MS-AP2"},{"lng":121.39738,"city":"臺東縣","name":"TT-MS-AP3","nearby":"","lat":23.151234,"desc":"4-成功鎮美山部落-TT-MS-AP3"},{"lng":121.39729,"city":"臺東縣","name":"TT-MS-AP4","nearby":"","lat":23.151098,"desc":"4-成功鎮美山部落-TT-MS-AP4"},{"lng":121.24735,"city":"臺東縣","name":"TT-PANF-AP1","nearby":"","lat":22.89203,"desc":"4-東河鄉巴阿尼豐部落-TT-PANF-AP1"},{"lng":121.24788,"city":"臺東縣","name":"TT-PANF-AP2","nearby":"","lat":22.89163,"desc":"4-東河鄉巴阿尼豐部落-TT-PANF-AP2"},{"lng":121.247826,"city":"臺東縣","name":"TT-PANF-AP3","nearby":"","lat":22.89323,"desc":"4-東河鄉巴阿尼豐部落-TT-PANF-AP3"},{"lng":121.24858,"city":"臺東縣","name":"TT-PANF-AP4","nearby":"","lat":22.892786,"desc":"4-東河鄉巴阿尼豐部落-TT-PANF-AP4"},{"lng":121.24827,"city":"臺東縣","name":"TT-PANF-AP5","nearby":"","lat":22.896152,"desc":"4-東河鄉巴阿尼豐部落-TT-PANF-AP5"},{"lng":121.248726,"city":"臺東縣","name":"TT-PANF-AP6","nearby":"","lat":22.895872,"desc":"4-東河鄉巴阿尼豐部落-TT-PANF-AP6"},{"lng":121.40187,"city":"臺東縣","name":"TT-PHLA-AP1","nearby":"","lat":23.126879,"desc":"4-成功鎮比西里岸部落-TT-PHLA-AP1"},{"lng":121.40028,"city":"臺東縣","name":"TT-PHLA-AP2","nearby":"","lat":23.128275,"desc":"4-成功鎮比西里岸部落-TT-PHLA-AP2"},{"lng":121.40111,"city":"臺東縣","name":"TT-PHLA-AP3","nearby":"","lat":23.130013,"desc":"4-成功鎮比西里岸部落-TT-PHLA-AP3"},{"lng":121.40042,"city":"臺東縣","name":"TT-PHLA-AP4","nearby":"","lat":23.130419,"desc":"4-成功鎮比西里岸部落-TT-PHLA-AP4"},{"lng":121.40018,"city":"臺東縣","name":"TT-PHLA-AP5","nearby":"","lat":23.130728,"desc":"4-成功鎮比西里岸部落-TT-PHLA-AP5"},{"lng":121.39994,"city":"臺東縣","name":"TT-PHLA-AP6","nearby":"","lat":23.130787,"desc":"4-成功鎮比西里岸部落-TT-PHLA-AP6"},{"lng":121.5654,"city":"臺東縣","name":"TT-TC-AP1","nearby":"","lat":22.0579,"desc":"4-蘭嶼鄉東清部落-TT-TC-AP1"},{"lng":121.56508,"city":"臺東縣","name":"TT-TC-AP2","nearby":"","lat":22.05786,"desc":"4-蘭嶼鄉東清部落-TT-TC-AP2"},{"lng":121.564316,"city":"臺東縣","name":"TT-TC-AP3","nearby":"","lat":22.0578,"desc":"4-蘭嶼鄉東清部落-TT-TC-AP3"},{"lng":121.56433,"city":"臺東縣","name":"TT-TC-AP4","nearby":"","lat":22.05771,"desc":"4-蘭嶼鄉東清部落-TT-TC-AP4"},{"lng":121.567474,"city":"臺東縣","name":"TT-TC-AP5","nearby":"","lat":22.059566,"desc":"4-蘭嶼鄉東清部落-TT-TC-AP5"},{"lng":121.1774,"city":"臺東縣","name":"TT-TK-AP1","nearby":"","lat":23.0745,"desc":"4-關山鎮德高部落-TT-TK-AP1"},{"lng":121.1779,"city":"臺東縣","name":"TT-TK-AP2","nearby":"","lat":23.0757,"desc":"4-關山鎮德高部落-TT-TK-AP2"},{"lng":121.1794,"city":"臺東縣","name":"TT-TK-AP3","nearby":"","lat":23.0738,"desc":"4-關山鎮德高部落-TT-TK-AP3"},{"lng":121.1808,"city":"臺東縣","name":"TT-TK-AP4","nearby":"","lat":23.0746,"desc":"4-關山鎮德高部落-TT-TK-AP4"},{"lng":121.1738,"city":"臺東縣","name":"TT-TK-AP5","nearby":"","lat":23.0715,"desc":"4-關山鎮德高部落-TT-TK-AP5"},{"lng":121.1733,"city":"臺東縣","name":"TT-TK-AP6","nearby":"","lat":23.0727,"desc":"4-關山鎮德高部落-TT-TK-AP6"},{"lng":121.0635,"city":"臺東縣","name":"TT-WKA-AP1","nearby":"","lat":22.8937,"desc":"4-延平鄉瓦岡岸部落-TT-WKA-AP1"},{"lng":121.06659,"city":"臺東縣","name":"TT-WKA-AP2","nearby":"","lat":22.899277,"desc":"4-延平鄉瓦岡岸部落-TT-WKA-AP2"},{"lng":121.067055,"city":"臺東縣","name":"TT-WKA-AP3","nearby":"","lat":22.899818,"desc":"4-延平鄉瓦岡岸部落-TT-WKA-AP3"},{"lng":121.0668,"city":"臺東縣","name":"TT-WKA-AP4","nearby":"","lat":22.8996,"desc":"4-延平鄉瓦岡岸部落-TT-WKA-AP4"},{"lng":121.52734,"city":"臺東縣","name":"TT-LD-AP6","nearby":"","lat":22.07783,"desc":"4-蘭嶼鄉朗島部落-TT-LD-AP6"},{"lng":121.52475,"city":"臺東縣","name":"TT-LD-AP7","nearby":"","lat":22.08089,"desc":"4-蘭嶼鄉朗島部落-TT-LD-AP7"}]},{"name":"花蓮縣","points":[{"lng":121.39668,"city":"花蓮縣","name":"春日-AP1","nearby":"","lat":23.45429,"desc":"5-玉里鎮-春日部落-春日-AP1"},{"lng":121.39579,"city":"花蓮縣","name":"春日-AP2","nearby":"1","lat":23.45383,"desc":"5-玉里鎮-春日部落-春日-AP2"},{"lng":121.39577,"city":"花蓮縣","name":"春日-AP3","nearby":"","lat":23.45499,"desc":"5-玉里鎮-春日部落-春日-AP3"},{"lng":121.39498,"city":"花蓮縣","name":"春日-AP4","nearby":"","lat":23.45515,"desc":"5-玉里鎮-春日部落-春日-AP4"},{"lng":121.34521,"city":"花蓮縣","name":"阿飛赫-AP1","nearby":"1","lat":23.34556,"desc":"5-玉里鎮-阿飛赫部落-阿飛赫-AP1"},{"lng":121.34433,"city":"花蓮縣","name":"阿飛赫-AP2","nearby":"","lat":23.34503,"desc":"5-玉里鎮-阿飛赫部落-阿飛赫-AP2"},{"lng":121.34374,"city":"花蓮縣","name":"阿飛赫-AP3","nearby":"","lat":23.3464,"desc":"5-玉里鎮-阿飛赫部落-阿飛赫-AP3"},{"lng":121.58209,"city":"花蓮縣","name":"撤固兒-AP1","nearby":"1","lat":24.01027,"desc":"5-花蓮市-撤固兒部落-撤固兒-AP1"},{"lng":121.58667,"city":"花蓮縣","name":"撤固兒-AP2","nearby":"","lat":24.01252,"desc":"5-花蓮市-撤固兒部落-撤固兒-AP2"},{"lng":121.5793,"city":"花蓮縣","name":"撤固兒-AP3","nearby":"","lat":24.00888,"desc":"5-花蓮市-撤固兒部落-撤固兒-AP3"},{"lng":121.57798,"city":"花蓮縣","name":"撤固兒-AP4","nearby":"","lat":24.00888,"desc":"5-花蓮市-撤固兒部落-撤固兒-AP4"},{"lng":121.57928,"city":"花蓮縣","name":"撤固兒-AP5","nearby":"","lat":24.01034,"desc":"5-花蓮市-撤固兒部落-撤固兒-AP5"},{"lng":121.60714,"city":"花蓮縣","name":"克奧灣-AP1","nearby":"1","lat":24.08265,"desc":"5-秀林鄉-克奧灣部落-克奧灣-AP1"},{"lng":121.60634,"city":"花蓮縣","name":"克奧灣-AP3","nearby":"","lat":24.08113,"desc":"5-秀林鄉-克奧灣部落-克奧灣-AP3"},{"lng":121.60846,"city":"花蓮縣","name":"克奧灣-AP2","nearby":"","lat":24.08511,"desc":"5-秀林鄉-克奧灣部落-克奧灣-AP2"},{"lng":121.6058,"city":"花蓮縣","name":"克奧灣-AP4","nearby":"","lat":24.07909,"desc":"5-秀林鄉-克奧灣部落-克奧灣-AP4"},{"lng":121.60569,"city":"花蓮縣","name":"克奧灣-AP5","nearby":"","lat":24.07749,"desc":"5-秀林鄉-克奧灣部落-克奧灣-AP5"},{"lng":121.6058,"city":"花蓮縣","name":"克奧灣-AP4","nearby":"","lat":24.07909,"desc":"5-秀林鄉-克奧灣部落-克奧灣-AP4"},{"lng":121.60569,"city":"花蓮縣","name":"克奧灣-AP5","nearby":"","lat":24.07749,"desc":"5-秀林鄉-克奧灣部落-克奧灣-AP5"},{"lng":121.27345,"city":"花蓮縣","name":"白端-AP1","nearby":"","lat":23.24973,"desc":"5-卓溪鄉-白端部落-白端-AP1"},{"lng":121.2742,"city":"花蓮縣","name":"白端-AP2","nearby":"","lat":23.25146,"desc":"5-卓溪鄉-白端部落-白端-AP2"},{"lng":121.27313,"city":"花蓮縣","name":"白端-AP3","nearby":"1","lat":23.25157,"desc":"5-卓溪鄉-白端部落-白端-AP3"},{"lng":121.2991,"city":"花蓮縣","name":"姆拉丁-AP1","nearby":"1","lat":23.25331,"desc":"5-富里鄉-姆拉丁部落-姆拉丁-AP1"},{"lng":121.29951,"city":"花蓮縣","name":"姆拉丁-AP2","nearby":"","lat":23.25282,"desc":"5-富里鄉-姆拉丁部落-姆拉丁-AP2"},{"lng":121.29678,"city":"花蓮縣","name":"姆拉丁-AP3","nearby":"","lat":23.25381,"desc":"5-富里鄉-姆拉丁部落-姆拉丁-AP3"},{"lng":121.65,"city":"花蓮縣","name":"新城-AP1","nearby":"","lat":24.12911,"desc":"5-新城區-新城部落-新城-AP1"},{"lng":121.65131,"city":"花蓮縣","name":"新城-AP3","nearby":"","lat":24.12828,"desc":"5-新城區-新城部落-新城-AP3"},{"lng":121.6527,"city":"花蓮縣","name":"新城-AP2","nearby":"","lat":24.12587,"desc":"5-新城區-新城部落-新城-AP2"},{"lng":121.65136,"city":"花蓮縣","name":"新城-AP4","nearby":"1","lat":24.12679,"desc":"5-新城區-新城部落-新城-AP4"},{"lng":121.65074,"city":"花蓮縣","name":"新城-AP5","nearby":"","lat":24.12532,"desc":"5-新城區-新城部落-新城-AP5"},{"lng":121.37441,"city":"花蓮縣","name":"牧魯棧-AP1","nearby":"1","lat":23.57338,"desc":"5-瑞穗鄉-牧魯棧部落-牧魯棧-AP1"},{"lng":121.37039,"city":"花蓮縣","name":"牧魯棧-AP2","nearby":"","lat":23.57392,"desc":"5-瑞穗鄉-牧魯棧部落-牧魯棧-AP2"},{"lng":121.37554,"city":"花蓮縣","name":"牧魯棧-AP3","nearby":"","lat":23.57629,"desc":"5-瑞穗鄉-牧魯棧部落-牧魯棧-AP3"},{"lng":121.49858,"city":"花蓮縣","name":"山興-AP1","nearby":"","lat":23.72814,"desc":"5-鳳林鎮-山興部落-山興-AP1"},{"lng":121.49874,"city":"花蓮縣","name":"山興-AP2","nearby":"1","lat":23.72657,"desc":"5-鳳林鎮-山興部落-山興-AP2"},{"lng":121.50033,"city":"花蓮縣","name":"山興-AP3","nearby":"","lat":23.72632,"desc":"5-鳳林鎮-山興部落-山興-AP3"},{"lng":121.50017,"city":"花蓮縣","name":"山興-AP4","nearby":"","lat":23.72531,"desc":"5-鳳林鎮-山興部落-山興-AP4"},{"lng":121.60644,"city":"花蓮縣","name":"布拉旦-AP3","nearby":"","lat":24.10243,"desc":"2-秀林鄉-布拉旦部落-布拉旦-AP3"},{"lng":121.60711,"city":"花蓮縣","name":"布拉旦-AP4","nearby":"","lat":24.10182,"desc":"2-秀林鄉-布拉旦部落-布拉旦-AP4"},{"lng":121.6052,"city":"花蓮縣","name":"布拉旦-AP2","nearby":"","lat":24.10227,"desc":"2-秀林鄉-布拉旦部落-布拉旦-AP2"},{"lng":121.6064,"city":"花蓮縣","name":"布拉旦-AP1","nearby":"1","lat":24.10143,"desc":"2-秀林鄉-布拉旦部落-布拉旦-AP1"},{"lng":121.60895,"city":"花蓮縣","name":"布拉旦-AP5","nearby":"","lat":24.10207,"desc":"2-秀林鄉-布拉旦部落-布拉旦-AP5"},{"lng":121.60964,"city":"花蓮縣","name":"布拉旦-AP6","nearby":"","lat":24.10254,"desc":"2-秀林鄉-布拉旦部落-布拉旦-AP6"},{"lng":121.62601,"city":"花蓮縣","name":"秀林-AP2","nearby":"","lat":24.11954,"desc":"2-秀林鄉-秀林部落-秀林-AP2"},{"lng":121.62657,"city":"花蓮縣","name":"秀林-AP6","nearby":"","lat":24.12006,"desc":"2-秀林鄉-秀林部落-秀林-AP6"},{"lng":121.62479,"city":"花蓮縣","name":"秀林-AP3","nearby":"","lat":24.11889,"desc":"2-秀林鄉-秀林部落-秀林-AP3"},{"lng":121.62409,"city":"花蓮縣","name":"秀林-AP4","nearby":"","lat":24.11802,"desc":"2-秀林鄉-秀林部落-秀林-AP4"},{"lng":121.62536,"city":"花蓮縣","name":"秀林-AP5","nearby":"","lat":24.11783,"desc":"2-秀林鄉-秀林部落-秀林-AP5"},{"lng":121.62788,"city":"花蓮縣","name":"秀林-AP1","nearby":"","lat":24.12131,"desc":"2-秀林鄉-秀林部落-秀林-AP1"},{"lng":121.65076,"city":"花蓮縣","name":"得吉利-AP4","nearby":"","lat":24.15374,"desc":"2-秀林鄉-得吉利部落-得吉利-AP4"},{"lng":121.649,"city":"花蓮縣","name":"得吉利-AP1","nearby":"","lat":24.15305,"desc":"2-秀林鄉-得吉利部落-得吉利-AP1"},{"lng":121.64928,"city":"花蓮縣","name":"得吉利-AP2","nearby":"","lat":24.15245,"desc":"2-秀林鄉-得吉利部落-得吉利-AP2"},{"lng":121.64924,"city":"花蓮縣","name":"得吉利-AP3","nearby":"","lat":24.15399,"desc":"2-秀林鄉-得吉利部落-得吉利-AP3"},{"lng":121.65426,"city":"花蓮縣","name":"得吉利-AP5","nearby":"","lat":24.16857,"desc":"2-秀林鄉-得吉利部落-得吉利-AP5"},{"lng":121.6541,"city":"花蓮縣","name":"得吉利-AP6","nearby":"","lat":24.16774,"desc":"2-秀林鄉-得吉利部落-得吉利-AP6"},{"lng":121.50369,"city":"花蓮縣","name":"港口-AP1","nearby":"1","lat":23.47443,"desc":"2-豐濱鄉-港口部落-港口-AP1"},{"lng":121.5046,"city":"花蓮縣","name":"港口-AP2","nearby":"","lat":23.47523,"desc":"2-豐濱鄉-港口部落-港口-AP2"},{"lng":121.50378,"city":"花蓮縣","name":"港口-AP3","nearby":"","lat":23.47561,"desc":"2-豐濱鄉-港口部落-港口-AP3"},{"lng":121.5026,"city":"花蓮縣","name":"港口-AP4","nearby":"","lat":23.47599,"desc":"2-豐濱鄉-港口部落-港口-AP4"},{"lng":121.50285,"city":"花蓮縣","name":"港口-AP5","nearby":"","lat":23.47533,"desc":"2-豐濱鄉-港口部落-港口-AP5"},{"lng":121.63226,"city":"花蓮縣","name":"固祿-AP1","nearby":"","lat":24.14495,"desc":"3-秀林鄉-固祿部落-固祿-AP1"},{"lng":121.63319,"city":"花蓮縣","name":"固祿-AP2","nearby":"","lat":24.14389,"desc":"3-秀林鄉-固祿部落-固祿-AP2"},{"lng":121.63219,"city":"花蓮縣","name":"固祿-AP3","nearby":"","lat":24.14356,"desc":"3-秀林鄉-固祿部落-固祿-AP3"},{"lng":121.63445,"city":"花蓮縣","name":"固祿-AP4","nearby":"","lat":24.14247,"desc":"3-秀林鄉-固祿部落-固祿-AP4"},{"lng":121.63305,"city":"花蓮縣","name":"固祿-AP5","nearby":"","lat":24.14249,"desc":"3-秀林鄉-固祿部落-固祿-AP5"},{"lng":121.34416,"city":"花蓮縣","name":"紅葉-AP1","nearby":"","lat":23.49571,"desc":"3-萬榮鄉-紅葉部落-紅葉-AP1"},{"lng":121.3444,"city":"花蓮縣","name":"紅葉-AP2","nearby":"","lat":23.49513,"desc":"3-萬榮鄉-紅葉部落-紅葉-AP2"},{"lng":121.34288,"city":"花蓮縣","name":"紅葉-AP3","nearby":"","lat":23.49483,"desc":"3-萬榮鄉-紅葉部落-紅葉-AP3"},{"lng":121.34126,"city":"花蓮縣","name":"紅葉-AP4","nearby":"1","lat":23.49447,"desc":"3-萬榮鄉-紅葉部落-紅葉-AP4"},{"lng":121.33977,"city":"花蓮縣","name":"紅葉-AP5","nearby":"","lat":23.49412,"desc":"3-萬榮鄉-紅葉部落-紅葉-AP5"},{"lng":121.33839,"city":"花蓮縣","name":"紅葉-AP6","nearby":"","lat":23.49381,"desc":"3-萬榮鄉-紅葉部落-紅葉-AP6"},{"lng":121.41036,"city":"花蓮縣","name":"摩里莎卡-AP1","nearby":"","lat":23.71444,"desc":"3-萬榮鄉-摩里莎卡部落-摩里莎卡-AP1"},{"lng":121.40982,"city":"花蓮縣","name":"摩里莎卡-AP2","nearby":"","lat":23.71487,"desc":"3-萬榮鄉-摩里莎卡部落-摩里莎卡-AP2"},{"lng":121.41086,"city":"花蓮縣","name":"摩里莎卡-AP7","nearby":"","lat":23.71478,"desc":"3-萬榮鄉-摩里莎卡部落-摩里莎卡-AP7"},{"lng":121.41053,"city":"花蓮縣","name":"摩里莎卡-AP3","nearby":"","lat":23.71595,"desc":"3-萬榮鄉-摩里莎卡部落-摩里莎卡-AP3"},{"lng":121.40987,"city":"花蓮縣","name":"摩里莎卡-AP4","nearby":"","lat":23.7164,"desc":"3-萬榮鄉-摩里莎卡部落-摩里莎卡-AP4"},{"lng":121.40913,"city":"花蓮縣","name":"摩里莎卡-AP5","nearby":"","lat":23.71556,"desc":"3-萬榮鄉-摩里莎卡部落-摩里莎卡-AP5"},{"lng":121.40877,"city":"花蓮縣","name":"摩里莎卡-AP6","nearby":"","lat":23.71688,"desc":"3-萬榮鄉-摩里莎卡部落-摩里莎卡-AP6"},{"lng":121.42936,"city":"花蓮縣","name":"馬佛-AP1","nearby":"","lat":23.63559,"desc":"3-光復鄉-馬佛部落-馬佛-AP1"},{"lng":121.42953,"city":"花蓮縣","name":"馬佛-AP2","nearby":"","lat":23.63705,"desc":"3-光復鄉-馬佛部落-馬佛-AP2"},{"lng":121.42912,"city":"花蓮縣","name":"馬佛-AP3","nearby":"","lat":23.63832,"desc":"3-光復鄉-馬佛部落-馬佛-AP3"},{"lng":121.42833,"city":"花蓮縣","name":"馬佛-AP4","nearby":"","lat":23.63879,"desc":"3-光復鄉-馬佛部落-馬佛-AP4"},{"lng":121.42894,"city":"花蓮縣","name":"馬佛-AP5","nearby":"","lat":23.64007,"desc":"3-光復鄉-馬佛部落-馬佛-AP5"},{"lng":121.42984,"city":"花蓮縣","name":"馬佛-AP6","nearby":"","lat":23.64128,"desc":"3-光復鄉-馬佛部落-馬佛-AP6"},{"lng":121.26338,"city":"花蓮縣","name":"清水-AP3","nearby":"","lat":23.27417,"desc":"3-卓溪鄉-清水部落-清水-AP3"},{"lng":121.26245,"city":"花蓮縣","name":"清水-AP4","nearby":"","lat":23.27437,"desc":"3-卓溪鄉-清水部落-清水-AP4"},{"lng":121.26352,"city":"花蓮縣","name":"清水-AP5","nearby":"","lat":23.27494,"desc":"3-卓溪鄉-清水部落-清水-AP5"},{"lng":121.26211,"city":"花蓮縣","name":"清水-AP6","nearby":"","lat":23.27527,"desc":"3-卓溪鄉-清水部落-清水-AP6"},{"lng":121.27196,"city":"花蓮縣","name":"清水-AP1","nearby":"","lat":23.27774,"desc":"3-卓溪鄉-清水部落-清水-AP1"},{"lng":121.27051,"city":"花蓮縣","name":"清水-AP2","nearby":"","lat":23.27699,"desc":"3-卓溪鄉-清水部落-清水-AP2"},{"lng":121.50135,"city":"花蓮縣","name":"5C-001","nearby":"","lat":23.893951,"desc":"花蓮1-秀林鄉-重光部落-5C-001"},{"lng":121.50155,"city":"花蓮縣","name":"5C-002","nearby":"","lat":23.893515,"desc":"花蓮1-秀林鄉-重光部落-5C-002"},{"lng":121.50084,"city":"花蓮縣","name":"5C-003","nearby":"","lat":23.8928,"desc":"花蓮1-秀林鄉-重光部落-5C-003"},{"lng":121.50129,"city":"花蓮縣","name":"5C-004","nearby":"","lat":23.892363,"desc":"花蓮1-秀林鄉-重光部落-5C-004"},{"lng":121.50203,"city":"花蓮縣","name":"5C-005","nearby":"","lat":23.893408,"desc":"花蓮1-秀林鄉-重光部落-5C-005"},{"lng":121.608955,"city":"花蓮縣","name":"5C-006","nearby":"","lat":24.04284,"desc":"花蓮1-新城鄉-康樂部落-5C-006"},{"lng":121.607765,"city":"花蓮縣","name":"5C-007","nearby":"","lat":24.043781,"desc":"花蓮1-新城鄉-康樂部落-5C-007"},{"lng":121.60828,"city":"花蓮縣","name":"5C-008","nearby":"","lat":24.041634,"desc":"花蓮1-新城鄉-康樂部落-5C-008"},{"lng":121.607254,"city":"花蓮縣","name":"5C-009","nearby":"","lat":24.04339,"desc":"花蓮1-新城鄉-康樂部落-5C-009"},{"lng":121.60504,"city":"花蓮縣","name":"5C-010","nearby":"","lat":24.040342,"desc":"花蓮1-新城鄉-康樂部落-5C-010"},{"lng":121.605865,"city":"花蓮縣","name":"5C-011","nearby":"","lat":24.04141,"desc":"花蓮1-新城鄉-康樂部落-5C-011"},{"lng":121.632965,"city":"花蓮縣","name":"5C-012","nearby":"","lat":24.006956,"desc":"花蓮1-花蓮市-華東部落-5C-012"},{"lng":121.63277,"city":"花蓮縣","name":"5C-013","nearby":"","lat":24.006676,"desc":"花蓮1-花蓮市-華東部落-5C-013"},{"lng":121.632195,"city":"花蓮縣","name":"5C-014","nearby":"","lat":24.005196,"desc":"花蓮1-花蓮市-華東部落-5C-014"},{"lng":121.6312,"city":"花蓮縣","name":"5C-015","nearby":"","lat":24.007547,"desc":"花蓮1-花蓮市-華東部落-5C-015"},{"lng":121.63229,"city":"花蓮縣","name":"5C-016","nearby":"","lat":24.00357,"desc":"花蓮1-花蓮市-華東部落-5C-016"},{"lng":121.595566,"city":"花蓮縣","name":"5C-017","nearby":"","lat":23.96634,"desc":"花蓮1-吉安鄉-東昌部落-5C-017"},{"lng":121.595566,"city":"花蓮縣","name":"5C-018","nearby":"","lat":23.96589,"desc":"花蓮1-吉安鄉-東昌部落-5C-018"},{"lng":121.595276,"city":"花蓮縣","name":"5C-019","nearby":"","lat":23.965155,"desc":"花蓮1-吉安鄉-東昌部落-5C-019"},{"lng":121.593605,"city":"花蓮縣","name":"5C-020","nearby":"","lat":23.964657,"desc":"花蓮1-吉安鄉-東昌部落-5C-020"},{"lng":121.59824,"city":"花蓮縣","name":"5C-021","nearby":"","lat":23.963814,"desc":"花蓮1-吉安鄉-東昌部落-5C-021"},{"lng":121.5978,"city":"花蓮縣","name":"5C-022","nearby":"","lat":23.964079,"desc":"花蓮1-吉安鄉-東昌部落-5C-022"},{"lng":121.59863,"city":"花蓮縣","name":"5C-023","nearby":"","lat":23.96297,"desc":"花蓮1-吉安鄉-東昌部落-5C-023"},{"lng":121.59204,"city":"花蓮縣","name":"5C-024","nearby":"","lat":23.963526,"desc":"花蓮1-吉安鄉-東昌部落-5C-024"},{"lng":121.59681,"city":"花蓮縣","name":"5C-025","nearby":"","lat":23.962921,"desc":"花蓮1-吉安鄉-東昌部落-5C-025"},{"lng":121.59518,"city":"花蓮縣","name":"5C-026","nearby":"","lat":23.963726,"desc":"花蓮1-吉安鄉-東昌部落-5C-026"},{"lng":121.550865,"city":"花蓮縣","name":"5C-027","nearby":"","lat":23.954552,"desc":"花蓮1-吉安鄉-南華部落-5C-027"},{"lng":121.55061,"city":"花蓮縣","name":"5C-028","nearby":"","lat":23.954208,"desc":"花蓮1-吉安鄉-南華部落-5C-028"},{"lng":121.54934,"city":"花蓮縣","name":"5C-029","nearby":"","lat":23.955368,"desc":"花蓮1-吉安鄉-南華部落-5C-029"},{"lng":121.54837,"city":"花蓮縣","name":"5C-030","nearby":"","lat":23.95223,"desc":"花蓮1-吉安鄉-南華部落-5C-030"},{"lng":121.54911,"city":"花蓮縣","name":"5C-031","nearby":"","lat":23.953955,"desc":"花蓮1-吉安鄉-南華部落-5C-031"},{"lng":121.54932,"city":"花蓮縣","name":"5C-032","nearby":"","lat":23.951754,"desc":"花蓮1-吉安鄉-南華部落-5C-032"},{"lng":121.55,"city":"花蓮縣","name":"5C-033","nearby":"","lat":23.95314,"desc":"花蓮1-吉安鄉-南華部落-5C-033"},{"lng":121.56347,"city":"花蓮縣","name":"5C-034","nearby":"","lat":23.942965,"desc":"花蓮1-吉安鄉-小台東部落-5C-034"},{"lng":121.56443,"city":"花蓮縣","name":"5C-035","nearby":"","lat":23.942997,"desc":"花蓮1-吉安鄉-小台東部落-5C-035"},{"lng":121.56822,"city":"花蓮縣","name":"5C-036","nearby":"","lat":23.955183,"desc":"花蓮1-吉安鄉-小台東部落-5C-036"},{"lng":121.47471,"city":"花蓮縣","name":"5C-037","nearby":"","lat":23.824104,"desc":"花蓮1-壽豐鄉-溪口部落-5C-037"},{"lng":121.473015,"city":"花蓮縣","name":"5C-038","nearby":"","lat":23.822805,"desc":"花蓮1-壽豐鄉-溪口部落-5C-038"},{"lng":121.473015,"city":"花蓮縣","name":"5C-039","nearby":"","lat":23.822105,"desc":"花蓮1-壽豐鄉-溪口部落-5C-039"},{"lng":121.472206,"city":"花蓮縣","name":"5C-040","nearby":"","lat":23.820354,"desc":"花蓮1-壽豐鄉-溪口部落-5C-040"},{"lng":121.47141,"city":"花蓮縣","name":"5C-041","nearby":"","lat":23.819805,"desc":"花蓮1-壽豐鄉-溪口部落-5C-041"},{"lng":121.47221,"city":"花蓮縣","name":"5C-042","nearby":"","lat":23.818504,"desc":"花蓮1-壽豐鄉-溪口部落-5C-042"},{"lng":121.562096,"city":"花蓮縣","name":"5C-043","nearby":"","lat":23.784698,"desc":"花蓮1-壽豐鄉-水璉部落-5C-043"},{"lng":121.56141,"city":"花蓮縣","name":"5C-044","nearby":"","lat":23.783901,"desc":"花蓮1-壽豐鄉-水璉部落-5C-044"},{"lng":121.56033,"city":"花蓮縣","name":"5C-045","nearby":"","lat":23.780779,"desc":"花蓮1-壽豐鄉-水璉部落-5C-045"},{"lng":121.56316,"city":"花蓮縣","name":"5C-046","nearby":"","lat":23.78324,"desc":"花蓮1-壽豐鄉-水璉部落-5C-046"},{"lng":121.564224,"city":"花蓮縣","name":"5C-047","nearby":"","lat":23.783043,"desc":"花蓮1-壽豐鄉-水璉部落-5C-047"},{"lng":121.56422,"city":"花蓮縣","name":"5C-048","nearby":"","lat":23.783045,"desc":"花蓮1-壽豐鄉-水璉部落-5C-048"},{"lng":121.564674,"city":"花蓮縣","name":"5C-049","nearby":"","lat":23.783524,"desc":"花蓮1-壽豐鄉-水璉部落-5C-049"},{"lng":121.50597,"city":"花蓮縣","name":"5C-050","nearby":"","lat":23.92098,"desc":"花蓮1-壽豐鄉-池南部落-5C-050"},{"lng":121.50591,"city":"花蓮縣","name":"5C-051","nearby":"","lat":23.91991,"desc":"花蓮1-壽豐鄉-池南部落-5C-051"},{"lng":121.50349,"city":"花蓮縣","name":"5C-052","nearby":"","lat":23.920736,"desc":"花蓮1-壽豐鄉-池南部落-5C-052"},{"lng":121.50565,"city":"花蓮縣","name":"5C-053","nearby":"","lat":23.915333,"desc":"花蓮1-壽豐鄉-池南部落-5C-053"},{"lng":121.45052,"city":"花蓮縣","name":"5C-054","nearby":"","lat":23.66003,"desc":"花蓮1-光復鄉-太巴塱部落-5C-054"},{"lng":121.45064,"city":"花蓮縣","name":"5C-055","nearby":"","lat":23.65906,"desc":"花蓮1-光復鄉-太巴塱部落-5C-055"},{"lng":121.453964,"city":"花蓮縣","name":"5C-056","nearby":"","lat":23.658188,"desc":"花蓮1-光復鄉-太巴塱部落-5C-056"},{"lng":121.4534,"city":"花蓮縣","name":"5C-057","nearby":"","lat":23.656654,"desc":"花蓮1-光復鄉-太巴塱部落-5C-057"},{"lng":121.45473,"city":"花蓮縣","name":"5C-058","nearby":"","lat":23.66022,"desc":"花蓮1-光復鄉-太巴塱部落-5C-058"},{"lng":121.451645,"city":"花蓮縣","name":"5C-059","nearby":"","lat":23.656202,"desc":"花蓮1-光復鄉-太巴塱部落-5C-059"},{"lng":121.45012,"city":"花蓮縣","name":"5C-060","nearby":"","lat":23.6557,"desc":"花蓮1-光復鄉-太巴塱部落-5C-060"},{"lng":121.44879,"city":"花蓮縣","name":"5C-061","nearby":"","lat":23.643099,"desc":"花蓮1-光復鄉-砂荖部落-5C-061"},{"lng":121.44859,"city":"花蓮縣","name":"5C-062","nearby":"","lat":23.640957,"desc":"花蓮1-光復鄉-砂荖部落-5C-062"},{"lng":121.45142,"city":"花蓮縣","name":"5C-063","nearby":"","lat":23.642076,"desc":"花蓮1-光復鄉-砂荖部落-5C-063"},{"lng":121.44535,"city":"花蓮縣","name":"5C-064","nearby":"","lat":23.639324,"desc":"花蓮1-光復鄉-砂荖部落-5C-064"},{"lng":121.36258,"city":"花蓮縣","name":"5C-065","nearby":"","lat":23.667679,"desc":"花蓮1-光復鄉-阿陶莫部落-5C-065"},{"lng":121.471924,"city":"花蓮縣","name":"5C-066","nearby":"","lat":23.667433,"desc":"花蓮1-光復鄉-阿陶莫部落-5C-066"},{"lng":121.4719,"city":"花蓮縣","name":"5C-067","nearby":"","lat":23.667547,"desc":"花蓮1-光復鄉-阿陶莫部落-5C-067"},{"lng":121.46478,"city":"花蓮縣","name":"5C-068","nearby":"","lat":23.6722,"desc":"花蓮1-光復鄉-阿陶莫部落-5C-068"},{"lng":121.46471,"city":"花蓮縣","name":"5C-069","nearby":"","lat":23.671686,"desc":"花蓮1-光復鄉-阿陶莫部落-5C-069"},{"lng":121.36258,"city":"花蓮縣","name":"5C-070","nearby":"","lat":23.576422,"desc":"花蓮1-萬榮鄉-固努安部落-5C-070"},{"lng":121.3627,"city":"花蓮縣","name":"5C-071","nearby":"","lat":23.576813,"desc":"花蓮1-萬榮鄉-固努安部落-5C-071"},{"lng":121.362,"city":"花蓮縣","name":"5C-072","nearby":"","lat":23.577858,"desc":"花蓮1-萬榮鄉-固努安部落-5C-072"},{"lng":121.3611,"city":"花蓮縣","name":"5C-073","nearby":"","lat":23.579166,"desc":"花蓮1-萬榮鄉-固努安部落-5C-073"},{"lng":121.370026,"city":"花蓮縣","name":"5C-074","nearby":"","lat":23.527683,"desc":"花蓮1-萬榮鄉-東光部落-5C-074"},{"lng":121.36877,"city":"花蓮縣","name":"5C-075","nearby":"","lat":23.526316,"desc":"花蓮1-萬榮鄉-東光部落-5C-075"},{"lng":121.3692,"city":"花蓮縣","name":"5C-076","nearby":"","lat":23.526512,"desc":"花蓮1-萬榮鄉-東光部落-5C-076"},{"lng":121.37448,"city":"花蓮縣","name":"5C-077","nearby":"","lat":23.541853,"desc":"花蓮1-萬榮鄉-大馬遠部落-5C-077"},{"lng":121.37457,"city":"花蓮縣","name":"5C-078","nearby":"","lat":23.541834,"desc":"花蓮1-萬榮鄉-大馬遠部落-5C-078"},{"lng":121.37437,"city":"花蓮縣","name":"5C-079","nearby":"","lat":23.547087,"desc":"花蓮1-萬榮鄉-大馬遠部落-5C-079"},{"lng":121.375595,"city":"花蓮縣","name":"5C-080","nearby":"","lat":23.547516,"desc":"花蓮1-萬榮鄉-大馬遠部落-5C-080"},{"lng":121.37115,"city":"花蓮縣","name":"5C-081","nearby":"","lat":23.532116,"desc":"花蓮1-萬榮鄉-大馬遠部落-5C-081"},{"lng":121.37182,"city":"花蓮縣","name":"5C-082","nearby":"","lat":23.533264,"desc":"花蓮1-萬榮鄉-大馬遠部落-5C-082"},{"lng":121.36824,"city":"花蓮縣","name":"5C-083","nearby":"","lat":23.562534,"desc":"花蓮1-萬榮鄉-大馬遠部落-5C-083"},{"lng":121.3914,"city":"花蓮縣","name":"5C-084","nearby":"","lat":23.510782,"desc":"花蓮1-瑞穗鄉-屋拉力部落-5C-084"},{"lng":121.39182,"city":"花蓮縣","name":"5C-085","nearby":"","lat":23.512136,"desc":"花蓮1-瑞穗鄉-屋拉力部落-5C-085"},{"lng":121.39161,"city":"花蓮縣","name":"5C-086","nearby":"","lat":23.511637,"desc":"花蓮1-瑞穗鄉-屋拉力部落-5C-086"},{"lng":121.39038,"city":"花蓮縣","name":"5C-087","nearby":"","lat":23.511444,"desc":"花蓮1-瑞穗鄉-屋拉力部落-5C-087"},{"lng":121.39132,"city":"花蓮縣","name":"5C-088","nearby":"","lat":23.507662,"desc":"花蓮1-瑞穗鄉-屋拉力部落-5C-088"},{"lng":121.392975,"city":"花蓮縣","name":"5C-089","nearby":"","lat":23.490316,"desc":"花蓮1-瑞穗鄉-法淖部落-5C-089"},{"lng":121.39412,"city":"花蓮縣","name":"5C-090","nearby":"","lat":23.492579,"desc":"花蓮1-瑞穗鄉-法淖部落-5C-090"},{"lng":121.39115,"city":"花蓮縣","name":"5C-091","nearby":"","lat":23.491653,"desc":"花蓮1-瑞穗鄉-法淖部落-5C-091"},{"lng":121.39122,"city":"花蓮縣","name":"5C-092","nearby":"","lat":23.489845,"desc":"花蓮1-瑞穗鄉-法淖部落-5C-092"},{"lng":121.38624,"city":"花蓮縣","name":"5C-093","nearby":"","lat":23.579365,"desc":"花蓮1-瑞穗鄉-拉基禾幹部落-5C-093"},{"lng":121.38639,"city":"花蓮縣","name":"5C-094","nearby":"","lat":23.579931,"desc":"花蓮1-瑞穗鄉-拉基禾幹部落-5C-094"},{"lng":121.38793,"city":"花蓮縣","name":"5C-095","nearby":"","lat":23.581997,"desc":"花蓮1-瑞穗鄉-拉基禾幹部落-5C-095"},{"lng":121.38695,"city":"花蓮縣","name":"5C-096","nearby":"","lat":23.5825,"desc":"花蓮1-瑞穗鄉-拉基禾幹部落-5C-096"},{"lng":121.38964,"city":"花蓮縣","name":"5C-097","nearby":"","lat":23.526594,"desc":"花蓮1-瑞穗鄉-梧繞部落-5C-097"},{"lng":121.389725,"city":"花蓮縣","name":"5C-098","nearby":"","lat":23.526602,"desc":"花蓮1-瑞穗鄉-梧繞部落-5C-098"},{"lng":121.389366,"city":"花蓮縣","name":"5C-099","nearby":"","lat":23.527878,"desc":"花蓮1-瑞穗鄉-梧繞部落-5C-099"},{"lng":121.38855,"city":"花蓮縣","name":"5C-100","nearby":"","lat":23.52876,"desc":"花蓮1-瑞穗鄉-梧繞部落-5C-100"},{"lng":121.38927,"city":"花蓮縣","name":"5C-101","nearby":"","lat":23.530872,"desc":"花蓮1-瑞穗鄉-梧繞部落-5C-101"},{"lng":121.316124,"city":"花蓮縣","name":"5C-102","nearby":"","lat":23.43162,"desc":"花蓮1-卓溪鄉-山里部落-5C-102"},{"lng":121.316124,"city":"花蓮縣","name":"5C-103","nearby":"","lat":23.431618,"desc":"花蓮1-卓溪鄉-山里部落-5C-103"},{"lng":121.31237,"city":"花蓮縣","name":"5C-104","nearby":"","lat":23.43019,"desc":"花蓮1-卓溪鄉-山里部落-5C-104"},{"lng":121.31363,"city":"花蓮縣","name":"5C-105","nearby":"","lat":23.42994,"desc":"花蓮1-卓溪鄉-山里部落-5C-105"},{"lng":121.314476,"city":"花蓮縣","name":"5C-106","nearby":"","lat":23.432758,"desc":"花蓮1-卓溪鄉-山里部落-5C-106"},{"lng":121.31599,"city":"花蓮縣","name":"5C-107","nearby":"","lat":23.43379,"desc":"花蓮1-卓溪鄉-山里部落-5C-107"},{"lng":121.31447,"city":"花蓮縣","name":"5C-108","nearby":"","lat":23.432756,"desc":"花蓮1-卓溪鄉-山里部落-5C-108"},{"lng":121.31426,"city":"花蓮縣","name":"5C-109","nearby":"","lat":23.394192,"desc":"花蓮1-卓溪鄉-中平部落-5C-109"},{"lng":121.3134,"city":"花蓮縣","name":"5C-110","nearby":"","lat":23.394426,"desc":"花蓮1-卓溪鄉-中平部落-5C-110"},{"lng":121.31366,"city":"花蓮縣","name":"5C-111","nearby":"","lat":23.393696,"desc":"花蓮1-卓溪鄉-中平部落-5C-111"},{"lng":121.299576,"city":"花蓮縣","name":"5C-112","nearby":"","lat":23.389181,"desc":"花蓮1-卓溪鄉-中興部落-5C-112"},{"lng":121.314064,"city":"花蓮縣","name":"5C-113","nearby":"","lat":23.33592,"desc":"花蓮1-玉里鎮-玉里部落-5C-113"},{"lng":121.31417,"city":"花蓮縣","name":"5C-114","nearby":"","lat":23.335932,"desc":"花蓮1-玉里鎮-玉里部落-5C-114"},{"lng":121.3028,"city":"花蓮縣","name":"5C-115","nearby":"","lat":23.339956,"desc":"花蓮1-玉里鎮-玉里部落-5C-115"},{"lng":121.303474,"city":"花蓮縣","name":"5C-116","nearby":"","lat":23.340853,"desc":"花蓮1-玉里鎮-玉里部落-5C-116"},{"lng":121.30295,"city":"花蓮縣","name":"5C-117","nearby":"","lat":23.3404,"desc":"花蓮1-玉里鎮-玉里部落-5C-117"},{"lng":121.3452,"city":"花蓮縣","name":"5C-118","nearby":"","lat":23.31919,"desc":"花蓮1-玉里鎮-哈拉灣部落-5C-118"},{"lng":121.3452,"city":"花蓮縣","name":"5C-119","nearby":"","lat":23.31809,"desc":"花蓮1-玉里鎮-哈拉灣部落-5C-119"},{"lng":121.34602,"city":"花蓮縣","name":"5C-120","nearby":"","lat":23.31851,"desc":"花蓮1-玉里鎮-哈拉灣部落-5C-120"},{"lng":121.34452,"city":"花蓮縣","name":"5C-121","nearby":"","lat":23.31855,"desc":"花蓮1-玉里鎮-哈拉灣部落-5C-121"},{"lng":121.34473,"city":"花蓮縣","name":"5C-122","nearby":"","lat":23.3173,"desc":"花蓮1-玉里鎮-哈拉灣部落-5C-122"},{"lng":121.34375,"city":"花蓮縣","name":"5C-123","nearby":"","lat":23.31729,"desc":"花蓮1-玉里鎮-哈拉灣部落-5C-123"},{"lng":121.359856,"city":"花蓮縣","name":"5C-124","nearby":"","lat":23.397387,"desc":"花蓮1-玉里鎮-都旮薾部落-5C-124"},{"lng":121.36021,"city":"花蓮縣","name":"5C-125","nearby":"","lat":23.399155,"desc":"花蓮1-玉里鎮-都旮薾部落-5C-125"},{"lng":121.35987,"city":"花蓮縣","name":"5C-126","nearby":"","lat":23.399015,"desc":"花蓮1-玉里鎮-都旮薾部落-5C-126"},{"lng":121.36079,"city":"花蓮縣","name":"5C-127","nearby":"","lat":23.40026,"desc":"花蓮1-玉里鎮-都旮薾部落-5C-127"},{"lng":121.361725,"city":"花蓮縣","name":"5C-128","nearby":"","lat":23.40157,"desc":"花蓮1-玉里鎮-都旮薾部落-5C-128"},{"lng":121.36327,"city":"花蓮縣","name":"5C-129","nearby":"","lat":23.400331,"desc":"花蓮1-玉里鎮-都旮薾部落-5C-129"},{"lng":121.4051,"city":"花蓮縣","name":"5C-130","nearby":"","lat":23.46854,"desc":"花蓮1-玉里鎮-苓雅仔部落-5C-130"},{"lng":121.40675,"city":"花蓮縣","name":"5C-131","nearby":"","lat":23.46737,"desc":"花蓮1-玉里鎮-苓雅仔部落-5C-131"},{"lng":121.40773,"city":"花蓮縣","name":"5C-132","nearby":"","lat":23.467115,"desc":"花蓮1-玉里鎮-苓雅仔部落-5C-132"},{"lng":121.40854,"city":"花蓮縣","name":"5C-133","nearby":"","lat":23.466043,"desc":"花蓮1-玉里鎮-苓雅仔部落-5C-133"},{"lng":121.40716,"city":"花蓮縣","name":"5C-134","nearby":"","lat":23.46585,"desc":"花蓮1-玉里鎮-苓雅仔部落-5C-134"},{"lng":121.33824,"city":"花蓮縣","name":"5C-135","nearby":"","lat":23.294561,"desc":"花蓮1-玉里鎮-安通部落-5C-135"},{"lng":121.33905,"city":"花蓮縣","name":"5C-136","nearby":"","lat":23.29375,"desc":"花蓮1-玉里鎮-安通部落-5C-136"},{"lng":121.33792,"city":"花蓮縣","name":"5C-137","nearby":"","lat":23.293137,"desc":"花蓮1-玉里鎮-安通部落-5C-137"},{"lng":121.33439,"city":"花蓮縣","name":"5C-138","nearby":"","lat":23.29521,"desc":"花蓮1-玉里鎮-安通部落-5C-138"},{"lng":121.38859,"city":"花蓮縣","name":"5C-139","nearby":"","lat":23.442984,"desc":"花蓮1-玉里鎮-馬太林部落-5C-139"},{"lng":121.387886,"city":"花蓮縣","name":"5C-140","nearby":"","lat":23.44429,"desc":"花蓮1-玉里鎮-馬太林部落-5C-140"},{"lng":121.38741,"city":"花蓮縣","name":"5C-141","nearby":"","lat":23.445482,"desc":"花蓮1-玉里鎮-馬太林部落-5C-141"},{"lng":121.38955,"city":"花蓮縣","name":"5C-142","nearby":"","lat":23.44866,"desc":"花蓮1-玉里鎮-馬太林部落-5C-142"},{"lng":121.39012,"city":"花蓮縣","name":"5C-143","nearby":"","lat":23.449362,"desc":"花蓮1-玉里鎮-馬太林部落-5C-143"},{"lng":121.389275,"city":"花蓮縣","name":"5C-144","nearby":"","lat":23.448153,"desc":"花蓮1-玉里鎮-馬太林部落-5C-144"},{"lng":121.28923,"city":"花蓮縣","name":"5C-145","nearby":"","lat":23.226706,"desc":"花蓮1-富里鄉-達蘭埠部落-5C-145"},{"lng":121.28992,"city":"花蓮縣","name":"5C-146","nearby":"","lat":23.22651,"desc":"花蓮1-富里鄉-達蘭埠部落-5C-146"},{"lng":121.28991,"city":"花蓮縣","name":"5C-147","nearby":"","lat":23.226175,"desc":"花蓮1-富里鄉-達蘭埠部落-5C-147"},{"lng":121.29063,"city":"花蓮縣","name":"5C-148","nearby":"","lat":23.225447,"desc":"花蓮1-富里鄉-達蘭埠部落-5C-148"},{"lng":121.272545,"city":"花蓮縣","name":"5C-149","nearby":"","lat":23.142784,"desc":"花蓮1-富里鄉-吉拉米代部落-5C-149"},{"lng":121.27249,"city":"花蓮縣","name":"5C-150","nearby":"","lat":23.142925,"desc":"花蓮1-富里鄉-吉拉米代部落-5C-150"},{"lng":121.27109,"city":"花蓮縣","name":"5C-151","nearby":"","lat":23.142273,"desc":"花蓮1-富里鄉-吉拉米代部落-5C-151"},{"lng":121.269806,"city":"花蓮縣","name":"5C-152","nearby":"","lat":23.142462,"desc":"花蓮1-富里鄉-吉拉米代部落-5C-152"},{"lng":121.267654,"city":"花蓮縣","name":"5C-153","nearby":"","lat":23.143248,"desc":"花蓮1-富里鄉-吉拉米代部落-5C-153"},{"lng":121.281586,"city":"花蓮縣","name":"5C-154","nearby":"","lat":23.144253,"desc":"花蓮1-富里鄉-吉拉米代部落-5C-154"},{"lng":121.279015,"city":"花蓮縣","name":"5C-155","nearby":"","lat":23.140806,"desc":"花蓮1-富里鄉-吉拉米代部落-5C-155"},{"lng":121.27214,"city":"花蓮縣","name":"5C-156","nearby":"","lat":23.138165,"desc":"花蓮1-富里鄉-吉拉米代部落-5C-156"},{"lng":121.5502,"city":"花蓮縣","name":"5C-157","nearby":"","lat":23.695608,"desc":"花蓮1-豐濱鄉-磯崎部落-5C-157"},{"lng":121.547104,"city":"花蓮縣","name":"5C-158","nearby":"","lat":23.709051,"desc":"花蓮1-豐濱鄉-磯崎部落-5C-158"},{"lng":121.54733,"city":"花蓮縣","name":"5C-159","nearby":"","lat":23.708971,"desc":"花蓮1-豐濱鄉-磯崎部落-5C-159"},{"lng":121.546814,"city":"花蓮縣","name":"5C-160","nearby":"","lat":23.705463,"desc":"花蓮1-豐濱鄉-磯崎部落-5C-160"},{"lng":121.547424,"city":"花蓮縣","name":"5C-161","nearby":"","lat":23.707428,"desc":"花蓮1-豐濱鄉-磯崎部落-5C-161"},{"lng":121.30316,"city":"花蓮縣","name":"5C-162","nearby":"","lat":23.292002,"desc":"花蓮1-豐濱鄉-石梯坪部落-5C-162"},{"lng":121.303185,"city":"花蓮縣","name":"5C-163","nearby":"","lat":23.290176,"desc":"花蓮1-豐濱鄉-石梯坪部落-5C-163"},{"lng":121.30316,"city":"花蓮縣","name":"5C-164","nearby":"","lat":23.285767,"desc":"花蓮1-豐濱鄉-石梯坪部落-5C-164"},{"lng":121.30195,"city":"花蓮縣","name":"5C-165","nearby":"","lat":23.29301,"desc":"花蓮1-豐濱鄉-石梯坪部落-5C-165"},{"lng":121.555435,"city":"花蓮縣","name":"5C-166","nearby":"","lat":23.74715,"desc":"花蓮1-豐濱鄉-水璉-蕃薯寮-5C-166"},{"lng":121.50537,"city":"花蓮縣","name":"5C-167","nearby":"","lat":23.926865,"desc":"花蓮1-壽豐鄉-鯉魚潭-5C-167"},{"lng":121.50573,"city":"花蓮縣","name":"5C-168","nearby":"","lat":23.929367,"desc":"花蓮1-壽豐鄉-鯉魚潭-5C-168"},{"lng":121.50543,"city":"花蓮縣","name":"5C-169","nearby":"","lat":23.927496,"desc":"花蓮1-壽豐鄉-鯉魚潭-5C-169"},{"lng":121.50028,"city":"花蓮縣","name":"5C-170","nearby":"","lat":23.921228,"desc":"花蓮1-秀林鄉-秀林米亞丸部落-5C-170"},{"lng":121.50029,"city":"花蓮縣","name":"5C-171","nearby":"","lat":23.921234,"desc":"花蓮1-秀林鄉-秀林米亞丸部落-5C-171"},{"lng":121.61288,"city":"花蓮縣","name":"5C-172","nearby":"","lat":23.972439,"desc":"花蓮1-富里鄉-四維分校\/吉拉米代部落-5C-172"},{"lng":121.28119,"city":"花蓮縣","name":"5C-173","nearby":"","lat":23.125399,"desc":"花蓮1-花蓮市-東大門-5C-173"},{"lng":121.422585,"city":"花蓮縣","name":"5C-174","nearby":"","lat":23.674253,"desc":"花蓮1-光復鄉-光復產業中心-5C-174"},{"lng":121.48828,"city":"花蓮縣","name":"5C-176","nearby":"","lat":23.694946,"desc":"花蓮1-光復鄉-阿陶莫-加里洞-5C-176"},{"lng":121.48906,"city":"花蓮縣","name":"5C-177","nearby":"","lat":23.694613,"desc":"花蓮1-光復鄉-阿陶莫-加里洞-5C-177"},{"lng":121.54487,"city":"花蓮縣","name":"5C-178","nearby":"","lat":23.684196,"desc":"花蓮1-豐濱鄉-磯崎高山森林基地-5C-178"},{"lng":121.54742,"city":"花蓮縣","name":"5C-179","nearby":"","lat":23.707794,"desc":"花蓮1-豐濱鄉-山海劇場-5C-179"},{"lng":121.42301,"city":"花蓮縣","name":"5C-180","nearby":"","lat":23.673523,"desc":"花蓮1-豐濱鄉豐羽計畫-5C-180"},{"lng":121.619804,"city":"花蓮縣","name":"5C-181","nearby":"","lat":23.991358,"desc":"花蓮1-花蓮市花蓮縣政府-5C-181"},{"lng":121.62483,"city":"花蓮縣","name":"5C-182","nearby":"","lat":24.118576,"desc":"花蓮1-秀林鄉秀林鄉公所-5C-182"},{"lng":121.60412,"city":"花蓮縣","name":"5C-183","nearby":"","lat":24.03937,"desc":"花蓮1-新城鄉-新城鄉公所-5C-183"},{"lng":121.60658,"city":"花蓮縣","name":"5C-184","nearby":"","lat":23.9823,"desc":"花蓮1-花蓮市-花蓮市公所-5C-184"},{"lng":121.56367,"city":"花蓮縣","name":"5C-185","nearby":"","lat":23.972965,"desc":"花蓮1-吉安鄉-吉安鄉公所-5C-185"},{"lng":121.50885,"city":"花蓮縣","name":"5C-186","nearby":"","lat":23.870396,"desc":"花蓮1-壽豐鄉-壽豐鄉公所-5C-186"},{"lng":121.45158,"city":"花蓮縣","name":"5C-187","nearby":"","lat":23.74478,"desc":"花蓮1-鳳林鎮-鳳林鎮公所-5C-187"},{"lng":121.423294,"city":"花蓮縣","name":"5C-188","nearby":"","lat":23.669296,"desc":"花蓮1-光復鄉-光復鄉公所-5C-188"},{"lng":121.41096,"city":"花蓮縣","name":"5C-189","nearby":"","lat":23.715034,"desc":"花蓮1-萬榮鄉-萬榮鄉公所-5C-189"},{"lng":121.37577,"city":"花蓮縣","name":"5C-190","nearby":"","lat":23.496485,"desc":"花蓮1-瑞穗鄉-瑞穗鄉公所-5C-190"},{"lng":121.30345,"city":"花蓮縣","name":"5C-191","nearby":"","lat":23.346489,"desc":"花蓮1-卓溪鄉-卓溪鄉公所-5C-191"},{"lng":121.3152,"city":"花蓮縣","name":"5C-192","nearby":"","lat":23.33558,"desc":"花蓮1-玉里鎮-玉里鎮公所-5C-192"},{"lng":121.25024,"city":"花蓮縣","name":"5C-193","nearby":"","lat":23.179544,"desc":"花蓮1-富里鄉-富里鄉公所-5C-193"},{"lng":121.52121,"city":"花蓮縣","name":"5C-194","nearby":"","lat":23.60136,"desc":"花蓮1-豐濱鄉-豐濱鄉公所-5C-194"},{"lng":121.622665,"city":"花蓮縣","name":"5C-195","nearby":"","lat":24.007967,"desc":"花蓮1-花蓮市-台灣原住民文化館-5C-195"},{"lng":121.58123,"city":"花蓮縣","name":"5C-196","nearby":"","lat":23.970043,"desc":"花蓮1-吉安鄉-吉安鄉阿美族文物館-5C-196"},{"lng":121.51423,"city":"花蓮縣","name":"5C-197","nearby":"","lat":23.881775,"desc":"花蓮1-壽豐鄉-壽豐鄉原住民文物館-5C-197"},{"lng":121.40902,"city":"花蓮縣","name":"5C-198","nearby":"","lat":23.716543,"desc":"花蓮1-萬榮鄉-萬榮鄉原住民文物館-5C-198"},{"lng":121.44619,"city":"花蓮縣","name":"5C-199","nearby":"","lat":23.491978,"desc":"花蓮1-瑞穗鄉-奇美部落原住民文物館-5C-199"},{"lng":121.41092,"city":"花蓮縣","name":"5C-200","nearby":"","lat":23.715567,"desc":"花蓮1-萬榮鄉-花縣萬榮國小行政大樓中間二樓柱子-5C-200"},{"lng":121.44253,"city":"花蓮縣","name":"HL-CYK-AP1","nearby":"","lat":23.80928,"desc":"4-萬榮鄉支亞干部落-HL-CYK-AP1"},{"lng":121.44199,"city":"花蓮縣","name":"HL-CYK-AP2","nearby":"","lat":23.80993,"desc":"4-萬榮鄉支亞干部落-HL-CYK-AP2"},{"lng":121.43857,"city":"花蓮縣","name":"HL-CYK-AP3","nearby":"","lat":23.8129,"desc":"4-萬榮鄉支亞干部落-HL-CYK-AP3"},{"lng":121.43819,"city":"花蓮縣","name":"HL-CYK-AP4","nearby":"","lat":23.81337,"desc":"4-萬榮鄉支亞干部落-HL-CYK-AP4"},{"lng":121.4364,"city":"花蓮縣","name":"HL-CYK-AP5","nearby":"","lat":23.81566,"desc":"4-萬榮鄉支亞干部落-HL-CYK-AP5"},{"lng":121.43689,"city":"花蓮縣","name":"HL-CYK-AP6","nearby":"","lat":23.81512,"desc":"4-萬榮鄉支亞干部落-HL-CYK-AP6"},{"lng":121.52125,"city":"花蓮縣","name":"HL-FB-AP1","nearby":"","lat":23.60184,"desc":"1-豐濱鄉豐濱部落-HL-FB-AP1"},{"lng":121.52172,"city":"花蓮縣","name":"HL-FB-AP2","nearby":"","lat":23.60165,"desc":"1-豐濱鄉豐濱部落-HL-FB-AP2"},{"lng":121.52023,"city":"花蓮縣","name":"HL-FB-AP3","nearby":"","lat":23.59569,"desc":"1-豐濱鄉豐濱部落-HL-FB-AP3"},{"lng":121.52023,"city":"花蓮縣","name":"HL-FB-AP4","nearby":"","lat":23.59569,"desc":"1-豐濱鄉豐濱部落-HL-FB-AP4"},{"lng":121.52111,"city":"花蓮縣","name":"HL-FB-AP5","nearby":"","lat":23.5981,"desc":"1-豐濱鄉豐濱部落-HL-FB-AP5"},{"lng":121.52104,"city":"花蓮縣","name":"HL-FB-AP6","nearby":"","lat":23.59798,"desc":"1-豐濱鄉豐濱部落-HL-FB-AP6"},{"lng":121.44331,"city":"花蓮縣","name":"HL-FH-AP1","nearby":"","lat":23.730413,"desc":"4-鳳林鎮鳳信部落-HL-FH-AP1"},{"lng":121.443184,"city":"花蓮縣","name":"HL-FH-AP2","nearby":"","lat":23.729937,"desc":"4-鳳林鎮鳳信部落-HL-FH-AP2"},{"lng":121.444275,"city":"花蓮縣","name":"HL-FH-AP3","nearby":"","lat":23.735996,"desc":"4-鳳林鎮鳳信部落-HL-FH-AP3"},{"lng":121.44467,"city":"花蓮縣","name":"HL-FH-AP4","nearby":"","lat":23.736914,"desc":"4-鳳林鎮鳳信部落-HL-FH-AP4"},{"lng":121.44281,"city":"花蓮縣","name":"HL-FH-AP5","nearby":"","lat":23.732786,"desc":"4-鳳林鎮鳳信部落-HL-FH-AP5"},{"lng":121.44311,"city":"花蓮縣","name":"HL-FH-AP6","nearby":"","lat":23.733316,"desc":"4-鳳林鎮鳳信部落-HL-FH-AP6"},{"lng":121.49722,"city":"花蓮縣","name":"HL-JP-AP1","nearby":"","lat":23.457905,"desc":"1-豐濱鄉靜浦部落-HL-JP-AP1"},{"lng":121.497536,"city":"花蓮縣","name":"HL-JP-AP2","nearby":"","lat":23.458408,"desc":"1-豐濱鄉靜浦部落-HL-JP-AP2"},{"lng":121.49539,"city":"花蓮縣","name":"HL-JP-AP3","nearby":"","lat":23.46191,"desc":"1-豐濱鄉靜浦部落-HL-JP-AP3"},{"lng":121.495636,"city":"花蓮縣","name":"HL-JP-AP4","nearby":"","lat":23.462275,"desc":"1-豐濱鄉靜浦部落-HL-JP-AP4"},{"lng":121.49025,"city":"花蓮縣","name":"HL-JP-AP5","nearby":"","lat":23.46855,"desc":"1-豐濱鄉靜浦部落-HL-JP-AP5"},{"lng":121.49051,"city":"花蓮縣","name":"HL-JP-AP6","nearby":"","lat":23.46861,"desc":"1-豐濱鄉靜浦部落-HL-JP-AP6"},{"lng":121.59731,"city":"花蓮縣","name":"HL-KDS-AP1","nearby":"","lat":24.05776,"desc":"4-秀林鄉格督尚部落-HL-KDS-AP1"},{"lng":121.59731,"city":"花蓮縣","name":"HL-KDS-AP2","nearby":"","lat":24.05776,"desc":"4-秀林鄉格督尚部落-HL-KDS-AP2"},{"lng":121.59636,"city":"花蓮縣","name":"HL-KDS-AP3","nearby":"","lat":24.056158,"desc":"4-秀林鄉格督尚部落-HL-KDS-AP3"},{"lng":121.59378,"city":"花蓮縣","name":"HL-KDS-AP4","nearby":"","lat":24.05544,"desc":"4-秀林鄉格督尚部落-HL-KDS-AP4"},{"lng":121.593285,"city":"花蓮縣","name":"HL-KDS-AP5","nearby":"","lat":24.0516,"desc":"4-秀林鄉格督尚部落-HL-KDS-AP5"},{"lng":121.592445,"city":"花蓮縣","name":"HL-KDS-AP6","nearby":"","lat":24.050568,"desc":"4-秀林鄉格督尚部落-HL-KDS-AP6"},{"lng":121.74816,"city":"花蓮縣","name":"HL-KNB-AP1","nearby":"","lat":24.30842,"desc":"4-秀林鄉克尼布部落-HL-KNB-AP1"},{"lng":121.74842,"city":"花蓮縣","name":"HL-KNB-AP2","nearby":"","lat":24.30869,"desc":"4-秀林鄉克尼布部落-HL-KNB-AP2"},{"lng":121.74772,"city":"花蓮縣","name":"HL-KNB-AP3","nearby":"","lat":24.30924,"desc":"4-秀林鄉克尼布部落-HL-KNB-AP3"},{"lng":121.74742,"city":"花蓮縣","name":"HL-KNB-AP4","nearby":"","lat":24.30954,"desc":"4-秀林鄉克尼布部落-HL-KNB-AP4"},{"lng":121.74766,"city":"花蓮縣","name":"HL-KNB-AP5","nearby":"","lat":24.310278,"desc":"4-秀林鄉克尼布部落-HL-KNB-AP5"},{"lng":121.74747,"city":"花蓮縣","name":"HL-KNB-AP6","nearby":"","lat":24.3102,"desc":"4-秀林鄉克尼布部落-HL-KNB-AP6"},{"lng":121.74773,"city":"花蓮縣","name":"HL-KNB-AP7","nearby":"","lat":24.31034,"desc":"4-秀林鄉克尼布部落-HL-KNB-AP7"},{"lng":121.3328,"city":"花蓮縣","name":"HL-KT-AP1","nearby":"","lat":23.436749,"desc":"4-卓溪鄉古村部落-HL-KT-AP1"},{"lng":121.33187,"city":"花蓮縣","name":"HL-KT-AP2","nearby":"","lat":23.436405,"desc":"4-卓溪鄉古村部落-HL-KT-AP2"},{"lng":121.33321,"city":"花蓮縣","name":"HL-KT-AP3","nearby":"","lat":23.437595,"desc":"4-卓溪鄉古村部落-HL-KT-AP3"},{"lng":121.3335,"city":"花蓮縣","name":"HL-KT-AP4","nearby":"","lat":23.437492,"desc":"4-卓溪鄉古村部落-HL-KT-AP4"},{"lng":121.332634,"city":"花蓮縣","name":"HL-KT-AP5","nearby":"","lat":23.437204,"desc":"4-卓溪鄉古村部落-HL-KT-AP5"},{"lng":121.312584,"city":"花蓮縣","name":"HL-KT-AP6","nearby":"","lat":23.42994,"desc":"4-卓溪鄉古村部落-HL-KT-AP6"},{"lng":121.381996,"city":"花蓮縣","name":"HL-LHK-AP1","nearby":"","lat":23.43588,"desc":"4-玉里鎮洛合谷部落-HL-LHK-AP1"},{"lng":121.38114,"city":"花蓮縣","name":"HL-LHK-AP10","nearby":"","lat":23.4359,"desc":"4-玉里鎮洛合谷部落-HL-LHK-AP10"},{"lng":121.38216,"city":"花蓮縣","name":"HL-LHK-AP2","nearby":"","lat":23.435617,"desc":"4-玉里鎮洛合谷部落-HL-LHK-AP2"},{"lng":121.38163,"city":"花蓮縣","name":"HL-LHK-AP3","nearby":"","lat":23.43574,"desc":"4-玉里鎮洛合谷部落-HL-LHK-AP3"},{"lng":121.38136,"city":"花蓮縣","name":"HL-LHK-AP4","nearby":"","lat":23.435986,"desc":"4-玉里鎮洛合谷部落-HL-LHK-AP4"},{"lng":121.37953,"city":"花蓮縣","name":"HL-LHK-AP5","nearby":"","lat":23.43622,"desc":"4-玉里鎮洛合谷部落-HL-LHK-AP5"},{"lng":121.381325,"city":"花蓮縣","name":"HL-LHK-AP6","nearby":"","lat":23.435852,"desc":"4-玉里鎮洛合谷部落-HL-LHK-AP6"},{"lng":121.37666,"city":"花蓮縣","name":"HL-LHK-AP7","nearby":"","lat":23.431364,"desc":"4-玉里鎮洛合谷部落-HL-LHK-AP7"},{"lng":121.37728,"city":"花蓮縣","name":"HL-LHK-AP8","nearby":"","lat":23.430744,"desc":"4-玉里鎮洛合谷部落-HL-LHK-AP8"},{"lng":121.38005,"city":"花蓮縣","name":"HL-LHK-AP9","nearby":"","lat":23.435955,"desc":"4-玉里鎮洛合谷部落-HL-LHK-AP9"},{"lng":121.34363,"city":"花蓮縣","name":"HL-LS-AP1","nearby":"","lat":23.438828,"desc":"4-卓溪鄉崙山部落-HL-LS-AP1"},{"lng":121.34129,"city":"花蓮縣","name":"HL-LS-AP2","nearby":"","lat":23.44023,"desc":"4-卓溪鄉崙山部落-HL-LS-AP2"},{"lng":121.34151,"city":"花蓮縣","name":"HL-LS-AP3","nearby":"","lat":23.440525,"desc":"4-卓溪鄉崙山部落-HL-LS-AP3"},{"lng":121.34149,"city":"花蓮縣","name":"HL-LS-AP4","nearby":"","lat":23.440575,"desc":"4-卓溪鄉崙山部落-HL-LS-AP4"},{"lng":121.342705,"city":"花蓮縣","name":"HL-LS-AP5","nearby":"","lat":23.437922,"desc":"4-卓溪鄉崙山部落-HL-LS-AP5"},{"lng":121.34259,"city":"花蓮縣","name":"HL-LS-AP6","nearby":"","lat":23.43884,"desc":"4-卓溪鄉崙山部落-HL-LS-AP6"},{"lng":121.34183,"city":"花蓮縣","name":"HL-LS-AP7","nearby":"","lat":23.43916,"desc":"4-卓溪鄉崙山部落-HL-LS-AP7"},{"lng":121.34277,"city":"花蓮縣","name":"HL-LS-AP8","nearby":"","lat":23.43858,"desc":"4-卓溪鄉崙山部落-HL-LS-AP8"},{"lng":121.26482,"city":"花蓮縣","name":"HL-LT-AP1","nearby":"","lat":23.220272,"desc":"4-卓溪鄉崙天部落-HL-LT-AP1"},{"lng":121.264725,"city":"花蓮縣","name":"HL-LT-AP2","nearby":"","lat":23.22043,"desc":"4-卓溪鄉崙天部落-HL-LT-AP2"},{"lng":121.25491,"city":"花蓮縣","name":"HL-LT-AP3","nearby":"","lat":23.21808,"desc":"4-卓溪鄉崙天部落-HL-LT-AP3"},{"lng":121.255005,"city":"花蓮縣","name":"HL-LT-AP4","nearby":"","lat":23.218513,"desc":"4-卓溪鄉崙天部落-HL-LT-AP4"},{"lng":121.25677,"city":"花蓮縣","name":"HL-LT-AP5","nearby":"","lat":23.220644,"desc":"4-卓溪鄉崙天部落-HL-LT-AP5"},{"lng":121.25618,"city":"花蓮縣","name":"HL-LT-AP6","nearby":"","lat":23.21823,"desc":"4-卓溪鄉崙天部落-HL-LT-AP6"},{"lng":121.27349,"city":"花蓮縣","name":"HL-LT-AP7","nearby":"","lat":23.250626,"desc":"4-卓溪鄉崙天部落-HL-LT-AP7"},{"lng":121.374725,"city":"花蓮縣","name":"HL-MCL-AP1","nearby":"","lat":23.428541,"desc":"4-玉里鎮滿自然部落-HL-MCL-AP1"},{"lng":121.37426,"city":"花蓮縣","name":"HL-MCL-AP2","nearby":"","lat":23.428429,"desc":"4-玉里鎮滿自然部落-HL-MCL-AP2"},{"lng":121.37361,"city":"花蓮縣","name":"HL-MCL-AP3","nearby":"","lat":23.426908,"desc":"4-玉里鎮滿自然部落-HL-MCL-AP3"},{"lng":121.3738,"city":"花蓮縣","name":"HL-MCL-AP4","nearby":"","lat":23.427217,"desc":"4-玉里鎮滿自然部落-HL-MCL-AP4"},{"lng":121.37311,"city":"花蓮縣","name":"HL-MCL-AP5","nearby":"","lat":23.428007,"desc":"4-玉里鎮滿自然部落-HL-MCL-AP5"},{"lng":121.37337,"city":"花蓮縣","name":"HL-MCL-AP6","nearby":"","lat":23.428185,"desc":"4-玉里鎮滿自然部落-HL-MCL-AP6"},{"lng":121.37404,"city":"花蓮縣","name":"HL-MCL-AP7","nearby":"","lat":23.428162,"desc":"4-玉里鎮滿自然部落-HL-MCL-AP7"},{"lng":121.3698,"city":"花蓮縣","name":"HL-MKTA-AP1","nearby":"","lat":23.41806,"desc":"4-玉里鎮瑪谷達璦部落-HL-MKTA-AP1"},{"lng":121.37008,"city":"花蓮縣","name":"HL-MKTA-AP2","nearby":"","lat":23.418133,"desc":"4-玉里鎮瑪谷達璦部落-HL-MKTA-AP2"},{"lng":121.36979,"city":"花蓮縣","name":"HL-MKTA-AP3","nearby":"","lat":23.418419,"desc":"4-玉里鎮瑪谷達璦部落-HL-MKTA-AP3"},{"lng":121.36966,"city":"花蓮縣","name":"HL-MKTA-AP4","nearby":"","lat":23.418344,"desc":"4-玉里鎮瑪谷達璦部落-HL-MKTA-AP4"},{"lng":121.37211,"city":"花蓮縣","name":"HL-MKTA-AP5","nearby":"","lat":23.415007,"desc":"4-玉里鎮瑪谷達璦部落-HL-MKTA-AP5"},{"lng":121.37158,"city":"花蓮縣","name":"HL-MKTA-AP6","nearby":"","lat":23.415636,"desc":"4-玉里鎮瑪谷達璦部落-HL-MKTA-AP6"},{"lng":121.42601,"city":"花蓮縣","name":"HL-MTA-AP1","nearby":"","lat":23.67175,"desc":"1-光復鄉馬太鞍部落-HL-MTA-AP1"},{"lng":121.4264,"city":"花蓮縣","name":"HL-MTA-AP2","nearby":"","lat":23.67176,"desc":"1-光復鄉馬太鞍部落-HL-MTA-AP2"},{"lng":121.42651,"city":"花蓮縣","name":"HL-MTA-AP3","nearby":"","lat":23.67146,"desc":"1-光復鄉馬太鞍部落-HL-MTA-AP3"},{"lng":121.42476,"city":"花蓮縣","name":"HL-MTA-AP4","nearby":"","lat":23.67215,"desc":"1-光復鄉馬太鞍部落-HL-MTA-AP4"},{"lng":121.42476,"city":"花蓮縣","name":"HL-MTA-AP5","nearby":"","lat":23.67215,"desc":"1-光復鄉馬太鞍部落-HL-MTA-AP5"},{"lng":121.42465,"city":"花蓮縣","name":"HL-MTA-AP6","nearby":"","lat":23.67211,"desc":"1-光復鄉馬太鞍部落-HL-MTA-AP6"},{"lng":121.41275,"city":"花蓮縣","name":"HL-MTA-AP7","nearby":"","lat":23.65849,"desc":"1-光復鄉馬太鞍部落-HL-MTA-AP7"},{"lng":121.41281,"city":"花蓮縣","name":"HL-MTA-AP8","nearby":"","lat":23.6585,"desc":"1-光復鄉馬太鞍部落-HL-MTA-AP8"},{"lng":121.4129,"city":"花蓮縣","name":"HL-MTA-AP9","nearby":"","lat":23.65833,"desc":"1-光復鄉馬太鞍部落-HL-MTA-AP9"},{"lng":121.44407,"city":"花蓮縣","name":"HL-QM-AP1","nearby":"","lat":23.49387,"desc":"1-瑞穗鄉奇美部落-HL-QM-AP1"},{"lng":121.44433,"city":"花蓮縣","name":"HL-QM-AP2","nearby":"","lat":23.49408,"desc":"1-瑞穗鄉奇美部落-HL-QM-AP2"},{"lng":121.44561,"city":"花蓮縣","name":"HL-QM-AP3","nearby":"","lat":23.49423,"desc":"1-瑞穗鄉奇美部落-HL-QM-AP3"},{"lng":121.44564,"city":"花蓮縣","name":"HL-QM-AP4","nearby":"","lat":23.49394,"desc":"1-瑞穗鄉奇美部落-HL-QM-AP4"},{"lng":121.44676,"city":"花蓮縣","name":"HL-QM-AP5","nearby":"","lat":23.49444,"desc":"1-瑞穗鄉奇美部落-HL-QM-AP5"},{"lng":121.44659,"city":"花蓮縣","name":"HL-QM-AP6","nearby":"","lat":23.49407,"desc":"1-瑞穗鄉奇美部落-HL-QM-AP6"},{"lng":121.55387,"city":"花蓮縣","name":"HL-SY-AP1","nearby":"","lat":24.00364,"desc":"4-秀林鄉水源部落-HL-SY-AP1"},{"lng":121.55416,"city":"花蓮縣","name":"HL-SY-AP2","nearby":"","lat":24.00397,"desc":"4-秀林鄉水源部落-HL-SY-AP2"},{"lng":121.55146,"city":"花蓮縣","name":"HL-SY-AP3","nearby":"","lat":24.00458,"desc":"4-秀林鄉水源部落-HL-SY-AP3"},{"lng":121.55183,"city":"花蓮縣","name":"HL-SY-AP4","nearby":"","lat":24.00438,"desc":"4-秀林鄉水源部落-HL-SY-AP4"},{"lng":121.54913,"city":"花蓮縣","name":"HL-SY-AP5","nearby":"","lat":24.00565,"desc":"4-秀林鄉水源部落-HL-SY-AP5"},{"lng":121.54987,"city":"花蓮縣","name":"HL-SY-AP6","nearby":"","lat":24.00518,"desc":"4-秀林鄉水源部落-HL-SY-AP6"},{"lng":121.44809,"city":"花蓮縣","name":"HL-TBL-AP1","nearby":"","lat":23.65878,"desc":"1-光復鄉太巴塱部落-HL-TBL-AP1"},{"lng":121.44794,"city":"花蓮縣","name":"HL-TBL-AP2","nearby":"","lat":23.65862,"desc":"1-光復鄉太巴塱部落-HL-TBL-AP2"},{"lng":121.44785,"city":"花蓮縣","name":"HL-TBL-AP3","nearby":"","lat":23.6591,"desc":"1-光復鄉太巴塱部落-HL-TBL-AP3"},{"lng":121.44961,"city":"花蓮縣","name":"HL-TBL-AP4","nearby":"","lat":23.65614,"desc":"1-光復鄉太巴塱部落-HL-TBL-AP4"},{"lng":121.44961,"city":"花蓮縣","name":"HL-TBL-AP5","nearby":"","lat":23.65614,"desc":"1-光復鄉太巴塱部落-HL-TBL-AP5"},{"lng":121.44992,"city":"花蓮縣","name":"HL-TBL-AP6","nearby":"","lat":23.65599,"desc":"1-光復鄉太巴塱部落-HL-TBL-AP6"},{"lng":121.45074,"city":"花蓮縣","name":"HL-TBL-AP7","nearby":"","lat":23.65834,"desc":"1-光復鄉太巴塱部落-HL-TBL-AP7"},{"lng":121.4504,"city":"花蓮縣","name":"HL-TBL-AP8","nearby":"","lat":23.65797,"desc":"1-光復鄉太巴塱部落-HL-TBL-AP8"},{"lng":121.45071,"city":"花蓮縣","name":"HL-TBL-AP9","nearby":"","lat":23.65784,"desc":"1-光復鄉太巴塱部落-HL-TBL-AP9"},{"lng":121.31669,"city":"花蓮縣","name":"HL-TP-AP1","nearby":"","lat":23.407133,"desc":"4-卓溪鄉太平部落-HL-TP-AP1"},{"lng":121.316864,"city":"花蓮縣","name":"HL-TP-AP2","nearby":"","lat":23.407698,"desc":"4-卓溪鄉太平部落-HL-TP-AP2"},{"lng":121.31745,"city":"花蓮縣","name":"HL-TP-AP3","nearby":"","lat":23.407475,"desc":"4-卓溪鄉太平部落-HL-TP-AP3"},{"lng":121.31738,"city":"花蓮縣","name":"HL-TP-AP4","nearby":"","lat":23.40707,"desc":"4-卓溪鄉太平部落-HL-TP-AP4"},{"lng":121.31913,"city":"花蓮縣","name":"HL-TP-AP5","nearby":"","lat":23.40773,"desc":"4-卓溪鄉太平部落-HL-TP-AP5"},{"lng":121.319466,"city":"花蓮縣","name":"HL-TP-AP6","nearby":"","lat":23.40701,"desc":"4-卓溪鄉太平部落-HL-TP-AP6"},{"lng":121.506645,"city":"花蓮縣","name":"HL-WL-AP1","nearby":"","lat":23.94743,"desc":"4-秀林鄉文蘭部落-HL-WL-AP1"},{"lng":121.50684,"city":"花蓮縣","name":"HL-WL-AP2","nearby":"","lat":23.948141,"desc":"4-秀林鄉文蘭部落-HL-WL-AP2"},{"lng":121.50701,"city":"花蓮縣","name":"HL-WL-AP3","nearby":"","lat":23.949665,"desc":"4-秀林鄉文蘭部落-HL-WL-AP3"},{"lng":121.50692,"city":"花蓮縣","name":"HL-WL-AP4","nearby":"","lat":23.948992,"desc":"4-秀林鄉文蘭部落-HL-WL-AP4"},{"lng":121.506165,"city":"花蓮縣","name":"HL-WL-AP5","nearby":"","lat":23.950523,"desc":"4-秀林鄉文蘭部落-HL-WL-AP5"},{"lng":121.506454,"city":"花蓮縣","name":"HL-WL-AP6","nearby":"","lat":23.95035,"desc":"4-秀林鄉文蘭部落-HL-WL-AP6"},{"lng":121.506645,"city":"花蓮縣","name":"HL-WL-AP7","nearby":"","lat":23.94743,"desc":"4-秀林鄉文蘭部落-HL-WL-AP7"},{"lng":121.53593,"city":"花蓮縣","name":"HL-XS-AP1","nearby":"","lat":23.65101,"desc":"1-豐濱鄉新社部落-HL-XS-AP1"},{"lng":121.53622,"city":"花蓮縣","name":"HL-XS-AP2","nearby":"","lat":23.65089,"desc":"1-豐濱鄉新社部落-HL-XS-AP2"},{"lng":121.53602,"city":"花蓮縣","name":"HL-XS-AP3","nearby":"","lat":23.65204,"desc":"1-豐濱鄉新社部落-HL-XS-AP3"},{"lng":121.53634,"city":"花蓮縣","name":"HL-XS-AP4","nearby":"","lat":23.65178,"desc":"1-豐濱鄉新社部落-HL-XS-AP4"},{"lng":121.53975,"city":"花蓮縣","name":"HL-XS-AP5","nearby":"","lat":23.65667,"desc":"1-豐濱鄉新社部落-HL-XS-AP5"},{"lng":121.53946,"city":"花蓮縣","name":"HL-XS-AP6","nearby":"","lat":23.656693,"desc":"1-豐濱鄉新社部落-HL-XS-AP6"}]},{"name":"苗栗縣","points":[{"lng":120.97822,"city":"苗栗縣","name":"天狗AP1","nearby":"","lat":24.39334,"desc":"3-泰安鄉-天狗部落-天狗AP1"},{"lng":120.97957,"city":"苗栗縣","name":"天狗AP2","nearby":"1","lat":24.39247,"desc":"3-泰安鄉-天狗部落-天狗AP2"},{"lng":120.9781,"city":"苗栗縣","name":"天狗AP3","nearby":"","lat":24.39174,"desc":"3-泰安鄉-天狗部落-天狗AP3"},{"lng":120.97772,"city":"苗栗縣","name":"天狗AP4","nearby":"","lat":24.39075,"desc":"3-泰安鄉-天狗部落-天狗AP4"},{"lng":120.9773,"city":"苗栗縣","name":"天狗AP5","nearby":"","lat":24.39165,"desc":"3-泰安鄉-天狗部落-天狗AP5"},{"lng":120.97707,"city":"苗栗縣","name":"天狗AP6","nearby":"","lat":24.39204,"desc":"3-泰安鄉-天狗部落-天狗AP6"},{"lng":120.96886,"city":"苗栗縣","name":"斯瓦細格-AP1","nearby":"","lat":24.47001,"desc":"3-泰安鄉-斯瓦細格部落-斯瓦細格-AP1"},{"lng":120.96963,"city":"苗栗縣","name":"斯瓦細格-AP2","nearby":"","lat":24.46999,"desc":"3-泰安鄉-斯瓦細格部落-斯瓦細格-AP2"},{"lng":120.96908,"city":"苗栗縣","name":"斯瓦細格-AP3","nearby":"","lat":24.47027,"desc":"3-泰安鄉-斯瓦細格部落-斯瓦細格-AP3"},{"lng":120.96854,"city":"苗栗縣","name":"斯瓦細格-AP4","nearby":"","lat":24.47016,"desc":"3-泰安鄉-斯瓦細格部落-斯瓦細格-AP4"},{"lng":121.04187,"city":"苗栗縣","name":"瓦祿-AP4","nearby":"","lat":24.60006,"desc":"3-南庄鄉-瓦祿部落-瓦祿-AP4"},{"lng":121.04006,"city":"苗栗縣","name":"瓦祿-AP1","nearby":"","lat":24.60079,"desc":"3-南庄鄉-瓦祿部落-瓦祿-AP1"},{"lng":121.04017,"city":"苗栗縣","name":"瓦祿-AP2","nearby":"","lat":24.59977,"desc":"3-南庄鄉-瓦祿部落-瓦祿-AP2"},{"lng":121.04098,"city":"苗栗縣","name":"瓦祿-AP3","nearby":"","lat":24.59876,"desc":"3-南庄鄉-瓦祿部落-瓦祿-AP3"},{"lng":121.04307,"city":"苗栗縣","name":"瓦祿-AP5","nearby":"","lat":24.5981,"desc":"3-南庄鄉-瓦祿部落-瓦祿-AP5"},{"lng":121.04417,"city":"苗栗縣","name":"瓦祿-AP6","nearby":"","lat":24.59659,"desc":"3-南庄鄉-瓦祿部落-瓦祿-AP6"},{"lng":120.93675,"city":"苗栗縣","name":"司馬限-AP1","nearby":"1","lat":24.40161,"desc":"5-泰安鄉-司馬限部落-司馬限-AP1"},{"lng":120.93885,"city":"苗栗縣","name":"司馬限-AP2","nearby":"","lat":24.40383,"desc":"5-泰安鄉-司馬限部落-司馬限-AP2"},{"lng":120.91972,"city":"苗栗縣","name":"ML-HTP-AP1","nearby":"","lat":24.39363,"desc":"4-泰安鄉細道邦部落-ML-HTP-AP1"},{"lng":120.92024,"city":"苗栗縣","name":"ML-HTP-AP2","nearby":"","lat":24.394167,"desc":"4-泰安鄉細道邦部落-ML-HTP-AP2"},{"lng":120.925064,"city":"苗栗縣","name":"ML-HTP-AP3","nearby":"","lat":24.392262,"desc":"4-泰安鄉細道邦部落-ML-HTP-AP3"},{"lng":120.92485,"city":"苗栗縣","name":"ML-HTP-AP4","nearby":"","lat":24.391632,"desc":"4-泰安鄉細道邦部落-ML-HTP-AP4"},{"lng":120.93672,"city":"苗栗縣","name":"ML-HTP-AP5","nearby":"","lat":24.402262,"desc":"4-泰安鄉細道邦部落-ML-HTP-AP5"},{"lng":120.9341,"city":"苗栗縣","name":"ML-MNP-AP1","nearby":"","lat":24.345945,"desc":"4-泰安鄉馬那邦部落-ML-MNP-AP1"},{"lng":120.93373,"city":"苗栗縣","name":"ML-MNP-AP2","nearby":"","lat":24.346437,"desc":"4-泰安鄉馬那邦部落-ML-MNP-AP2"},{"lng":120.927376,"city":"苗栗縣","name":"ML-MNP-AP3","nearby":"","lat":24.344568,"desc":"4-泰安鄉馬那邦部落-ML-MNP-AP3"},{"lng":120.92222,"city":"苗栗縣","name":"ML-MNP-AP4","nearby":"","lat":24.345491,"desc":"4-泰安鄉馬那邦部落-ML-MNP-AP4"},{"lng":120.92713,"city":"苗栗縣","name":"ML-MNP-AP5","nearby":"","lat":24.346504,"desc":"4-泰安鄉馬那邦部落-ML-MNP-AP5"},{"lng":120.92814,"city":"苗栗縣","name":"ML-MNP-AP6","nearby":"","lat":24.345896,"desc":"4-泰安鄉馬那邦部落-ML-MNP-AP6"},{"lng":120.94195,"city":"苗栗縣","name":"ML-YT-AP1","nearby":"","lat":24.471874,"desc":"4-泰安鄉圓墩部落-ML-YT-AP1"},{"lng":120.942154,"city":"苗栗縣","name":"ML-YT-AP2","nearby":"","lat":24.472305,"desc":"4-泰安鄉圓墩部落-ML-YT-AP2"},{"lng":120.945244,"city":"苗栗縣","name":"ML-YT-AP3","nearby":"","lat":24.467293,"desc":"4-泰安鄉圓墩部落-ML-YT-AP3"},{"lng":120.94565,"city":"苗栗縣","name":"ML-YT-AP4","nearby":"","lat":24.467537,"desc":"4-泰安鄉圓墩部落-ML-YT-AP4"},{"lng":120.94018,"city":"苗栗縣","name":"ML-YT-AP5","nearby":"","lat":24.465965,"desc":"4-泰安鄉圓墩部落-ML-YT-AP5"},{"lng":120.938995,"city":"苗栗縣","name":"ML-YT-AP6","nearby":"","lat":24.46619,"desc":"4-泰安鄉圓墩部落-ML-YT-AP6"}]},{"name":"高雄市","points":[{"lng":120.696,"city":"高雄市","name":"瑪雅-AP1","nearby":"","lat":23.23847,"desc":"3-那瑪夏區-瑪雅部落-瑪雅-AP1"},{"lng":120.69651,"city":"高雄市","name":"瑪雅-AP2","nearby":"","lat":23.23947,"desc":"3-那瑪夏區-瑪雅部落-瑪雅-AP2"},{"lng":120.69714,"city":"高雄市","name":"瑪雅-AP3","nearby":"","lat":23.23884,"desc":"3-那瑪夏區-瑪雅部落-瑪雅-AP3"},{"lng":120.69667,"city":"高雄市","name":"瑪雅-AP4","nearby":"","lat":23.23755,"desc":"3-那瑪夏區-瑪雅部落-瑪雅-AP4"},{"lng":120.69783,"city":"高雄市","name":"瑪雅-AP5","nearby":"","lat":23.23776,"desc":"3-那瑪夏區-瑪雅部落-瑪雅-AP5"},{"lng":120.69752,"city":"高雄市","name":"瑪雅-AP6","nearby":"","lat":23.24147,"desc":"3-那瑪夏區-瑪雅部落-瑪雅-AP6"},{"lng":120.7199,"city":"高雄市","name":"達卡努瓦-AP1","nearby":"","lat":23.26897,"desc":"2-那瑪夏區-達卡努瓦部落-達卡努瓦-AP1"},{"lng":120.72021,"city":"高雄市","name":"達卡努瓦-AP2","nearby":"","lat":23.2678,"desc":"2-那瑪夏區-達卡努瓦部落-達卡努瓦-AP2"},{"lng":120.71939,"city":"高雄市","name":"達卡努瓦-AP3","nearby":"","lat":23.26767,"desc":"2-那瑪夏區-達卡努瓦部落-達卡努瓦-AP3"},{"lng":120.71981,"city":"高雄市","name":"達卡努瓦-AP4","nearby":"","lat":23.27906,"desc":"2-那瑪夏區-達卡努瓦部落-達卡努瓦-AP4"},{"lng":120.71891,"city":"高雄市","name":"達卡努瓦-AP5","nearby":"","lat":23.27943,"desc":"2-那瑪夏區-達卡努瓦部落-達卡努瓦-AP5"},{"lng":120.71863,"city":"高雄市","name":"達卡努瓦-AP6","nearby":"","lat":23.27811,"desc":"2-那瑪夏區-達卡努瓦部落-達卡努瓦-AP6"},{"lng":120.71482,"city":"高雄市","name":"多納-AP1","nearby":"","lat":22.90986,"desc":"2-茂林區-多納部落-多納-AP1"},{"lng":120.71584,"city":"高雄市","name":"多納-AP4","nearby":"","lat":22.91034,"desc":"2-茂林區-多納部落-多納-AP4"},{"lng":120.7162,"city":"高雄市","name":"多納-AP2","nearby":"","lat":22.91104,"desc":"2-茂林區-多納部落-多納-AP2"},{"lng":120.71702,"city":"高雄市","name":"多納-AP3","nearby":"1","lat":22.91114,"desc":"2-茂林區-多納部落-多納-AP3"},{"lng":120.71551,"city":"高雄市","name":"多納-AP5","nearby":"","lat":22.91096,"desc":"2-茂林區-多納部落-多納-AP5"},{"lng":120.71936,"city":"高雄市","name":"高中-AP2","nearby":"","lat":23.13071,"desc":"2-桃源區-高中部落-高中-AP2"},{"lng":120.71884,"city":"高雄市","name":"高中-AP7","nearby":"","lat":23.13068,"desc":"2-桃源區-高中部落-高中-AP7"},{"lng":120.72274,"city":"高雄市","name":"高中-AP1","nearby":"","lat":23.13403,"desc":"2-桃源區-高中部落-高中-AP1"},{"lng":120.71826,"city":"高雄市","name":"高中-AP3","nearby":"","lat":23.12981,"desc":"2-桃源區-高中部落-高中-AP3"},{"lng":120.71758,"city":"高雄市","name":"高中-AP4","nearby":"1","lat":23.12966,"desc":"2-桃源區-高中部落-高中-AP4"},{"lng":120.71783,"city":"高雄市","name":"高中-AP5","nearby":"","lat":23.12915,"desc":"2-桃源區-高中部落-高中-AP5"},{"lng":120.71898,"city":"高雄市","name":"高中-AP6","nearby":"","lat":23.12895,"desc":"2-桃源區-高中部落-高中-AP6"}]},{"name":"高雄縣","points":[{"lng":120.68394,"city":"高雄縣","name":"KH-CS-AP1","nearby":"","lat":23.10737,"desc":"4-桃源區建山部落-KH-CS-AP1"},{"lng":120.6837,"city":"高雄縣","name":"KH-CS-AP2","nearby":"","lat":23.108076,"desc":"4-桃源區建山部落-KH-CS-AP2"},{"lng":120.68403,"city":"高雄縣","name":"KH-CS-AP3","nearby":"","lat":23.106747,"desc":"4-桃源區建山部落-KH-CS-AP3"},{"lng":120.68259,"city":"高雄縣","name":"KH-CS-AP4","nearby":"","lat":23.106564,"desc":"4-桃源區建山部落-KH-CS-AP4"},{"lng":120.68265,"city":"高雄縣","name":"KH-CS-AP5","nearby":"","lat":23.105661,"desc":"4-桃源區建山部落-KH-CS-AP5"},{"lng":120.686714,"city":"高雄縣","name":"KH-CS-AP6","nearby":"","lat":23.108421,"desc":"4-桃源區建山部落-KH-CS-AP6"},{"lng":120.683205,"city":"高雄縣","name":"KH-CS-AP7","nearby":"","lat":23.107874,"desc":"4-桃源區建山部落-KH-CS-AP7"},{"lng":120.663475,"city":"高雄縣","name":"KH-ML-AP1","nearby":"","lat":22.885715,"desc":"4-茂林區茂林部落-KH-ML-AP1"},{"lng":120.66417,"city":"高雄縣","name":"KH-ML-AP2","nearby":"","lat":22.886284,"desc":"4-茂林區茂林部落-KH-ML-AP2"},{"lng":120.664276,"city":"高雄縣","name":"KH-ML-AP3","nearby":"","lat":22.887293,"desc":"4-茂林區茂林部落-KH-ML-AP3"},{"lng":120.664795,"city":"高雄縣","name":"KH-ML-AP4","nearby":"","lat":22.88657,"desc":"4-茂林區茂林部落-KH-ML-AP4"},{"lng":120.66595,"city":"高雄縣","name":"KH-ML-AP5","nearby":"","lat":22.88695,"desc":"4-茂林區茂林部落-KH-ML-AP5"},{"lng":120.66577,"city":"高雄縣","name":"KH-ML-AP6","nearby":"","lat":22.88714,"desc":"4-茂林區茂林部落-KH-ML-AP6"}]}]}